Lat,Lon,Name,Full Address,Address,ZIP,City,Country,Source
50.29946965,8.27128530323418,"""GERMAN ASSOCIATION FOR GAS TECHNOLOGY"" E.V.","WEIßERDSTR., 65520, Limburg-Weilburg, Deutschland",WEIßERDSTR.,65520,BAD CAMBERG,Germany,Amadeus
47.48784935,12.07863874886448,"""INTERCHIM AUSTRIA"" INTERNATIONALER CHEMIEHANDEL GMBH","BRIXENTALERSTRAßE 67, 6300, Tirol, Österreich",BRIXENTALERSTRAßE 67,6300,WÖRGL,Austria,Amadeus
36.3395715,28.20470960306756,(SOLMAR),"A VIPE 0 IRAKLIOU, NEA ALIKARNASSOS, HERAKLION - CRETE, 716 01, Greece",,,,Greece,Hydrogen Europe
38.7288472,-9.1439462,"1s1 Energy Portugal, Unipessoal, Lda","Av. Duque de Loulé 5 6ºC, Lisbon, 1050-085, Portugal",,,,Portugal,Hydrogen Europe
53.350566,-2.664956,2G Energy,"Unit 1 Sycamore Ct, Warrington Rd, Runcorn WA7 1RS, United Kingdom",,,,United Kingdom,Hydrogen UK
52.11571435,7.083733369217654,2G ENERGY AG,"BENZSTR. 3, 48619, Borken, Deutschland",BENZSTR. 3,48619,HEEK,Germany,Amadeus
49.832097,19.065788,2G Polska Sp. z o.o.,"Piekarska 86, 43-300 Bielsko-Bia?a",Piekarska 86,43-300 Bielsko-Bia?a,,Poland,Hydrogen Poland
47.2647203,-1.4766609,3 AXES,199 RUE DE LA BOUGRIERE- 44980 SAINTE LUCE SUR LOIRE -,,,,France,Hydrogen France
49.112029,6.177191,45-8 Energy,4b rue François de Curel 57000 Metz,,,,France,Hydrogen France
49.169681,1.768774,6TM FROID,"25 RUE DE LA COTE A PIGEON, 95420, Val-d'Oise, Frankreich",25 RUE DE LA COTE A PIGEON,95420,ST GERVAIS,France,Amadeus
48.79755,2.627126,A GIACOMINI SA,"PARC DE PONTILLAULT, RUE DE ROME, 77340, Seine-et-Marne, Frankreich","PARC DE PONTILLAULT, RUE DE ROME",77340,PONTAULT COMBAULT,France,Amadeus
47.155573,7.004849,A. EGGEN,"RTE DE TRAMELAN 19, 2610, Bern, Schweiz",RTE DE TRAMELAN 19,2610,ST-IMIER,Switzerland,Amadeus
48.62944155,9.025275680403707,A.I.H ALTERNATIVE INVESTMENT HANDELSGESELLSCHAFT HOLDING GMBH,"MAX-EYTH-STR. 21, 71088, Böblingen, Deutschland",MAX-EYTH-STR. 21,71088,HOLZGERLINGEN,Germany,Amadeus
45.376241,9.144435,A.M.A. AZIENDA MULTISERVIZI AMBIENTALI DI ROZZANO S.P.A.,"VLE PALMIRO TOGLIATTI 129/A, 20089, Milano, Italien",VLE PALMIRO TOGLIATTI 129/A,20089,ROZZANO,Italy,Amadeus
55.8343469,-3.9811721,"A.R.BROWN,MCFARLANE & COMPANY, LIMITED","Maxium 3, 2 Parklands Ave, Holytown, Motherwell ML1 4WQ, United Kingdom",,,,United Kingdom,Amadeus
50.797733,6.10919,Aachen,"Prager Ring 106, 52070, Aachen, Germany",Prager Ring 106,52070,Aachen,Germany,Hydrogen Refuelling Stations | European Hydrogen Observatory (europa.eu)
57.01396,9.984469,Aalborg University,"Fredrik Bajers Vej 7K, 9220 Aalborg, North Denmark Region Denmark",,,,Denmark,Hydrogen Europe Research
48.0752382,16.3289077,AA-Solutions GmbH,"Industriezentrum NÖ-Süd Straße 16, 2355, Wiener Neudorf, Austria",Industriezentrum NÖ-Süd Straße 16,2355,Wiener Neudorf,Austria,Hydrogen Austria
47.6984865,15.82621158155829,AB IGRENE (PUBL),"HÅNÅKNIVÄGEN 12, 792 35, Dalarna, Schweden",HÅNÅKNIVÄGEN 12,792 35,MORA,Sweden,Amadeus
45.829422,4.991012,ABB,"324, Rue du Chat Botté, CS20400 Beynost 01708 Miribel CEDEX",,,,France,Hydrogen France
49.4892913,8.4673098,ABB AG,"Kallstadter Str. 1, 68309, Mannheim, Germany",Kallstadter Str. 1,68309,Mannheim,Germany,Hydrogen Germany
51.9873926,4.3798078,ABB E-MOBILITY GMBH,"Heertjeslaan 6, 2629JG, 2629 JD Delft, Netherlands",,,,Netherlands,Amadeus
47.4790608,8.3031653,ABB Ltd,"Bruggerstrasse 66, 68, Baden, 5400, Switzerland",,,,Switzerland,Hydrogen Europe
52.238943,20.998065,ABB Sp. z o.o.,"?aga?ska 1, 04-713 Warszawa",?aga?ska 1,04-713 Warszawa,,Poland,Hydrogen Poland
40.428778,-3.691921,ABEI ENERGY,"Calle Monte Esquinza 24, 5º izquierda",,,,Spain,Hydrogen Spain
37.3775547,-5.978279104410024,ABENGOA INNOVACIÓN,"C/ Energía Solar, 1 - Campus Palmas Altas, 41014 Sevilla (España)",,,,Spain,Hydrogen Spain
37.325095,-5.967628,ABENGOA INNOVACION SOCIEDAD ANONIMA.,"CALLE ENERGIA SOLAR (CAMPUS PALMAS ALTAS), 1, 41014, Sevilla, Spanien","CALLE ENERGIA SOLAR (CAMPUS PALMAS ALTAS), 1",41014,SEVILLA,Spain,Amadeus
57.10570385,-2.088462307992419,Aberdeen | City Hydrogen Energy Storage (ACHES),"Langdykes Road, AB12 3SH, Aberdeen, United Kingdom",Langdykes Road,AB12 3SH,Aberdeen,United Kingdom,Hydrogen Refuelling Stations | European Hydrogen Observatory (europa.eu)
57.1613391,-2.1137147,Aberdeen | Kittybrewster,"38 Powis Terrace, Kittybrewster, AB25 3RF, Aberdeen, United Kingdom","38 Powis Terrace, Kittybrewster",AB25 3RF,Aberdeen,United Kingdom,Hydrogen Refuelling Stations | European Hydrogen Observatory (europa.eu)
57.1605931776635,-2.11435923358071,Aberdeen Kittybrewster HRS,,,,Aberdeen,United Kingdom,Hydrogen Production | European Hydrogen Observatory (europa.eu)
50.00343985,8.722900825761648,ABL 2005 GMBH,"ILSE-POHL-STR. 51, 63303, Offenbach, Landkreis, Deutschland",ILSE-POHL-STR. 51,63303,DREIEICH,Germany,Amadeus
60.451214,22.278442,Äbo Akademi University,"Tuomiokirkontori, 20500 Turku, Finland",,,,France,Hydrogen Europe Research
39.4882562,-0.3639342,ABO ENERGY ESPAÑA SA.,"CALLE GRAN VIA DEL MARQUES DEL TURIA, 25 4, 46005, Valencia, Spanien","CALLE GRAN VIA DEL MARQUES DEL TURIA, 25 4",46005,VALENCIA,Spain,Amadeus
50.0953221,8.2151228,ABO WIND AKTIENGESELLSCHAFT,"UNTER DEN EICHEN 7, 65195, Wiesbaden, Deutschland",UNTER DEN EICHEN 7,65195,WIESBADEN,Germany,Amadeus
43.6126826,1.4583119,ABO Wind France,2 rue du libre échange 31500 Toulouse,,,,France,Hydrogen France
39.4638543,-0.3756411,ABO Wind Spain,"Calle Gran Vía Marqués del Turia 25, 1º, 46005 Valencia (España)",,,,Spain,Hydrogen Spain
37.9846257,23.76075123250437,ABS Hellenic,"Sachtouri 1, Kallithea, Athens, 17674, Greece",,,,Greece,Hydrogen Europe
41.1601068,-8.64783643308116,"ACAÍL - GÁS, S.A.","RUA DOMINGUEZ ALVAREZ, 44 ESCRITÓRIO 2.1 - EDIFÍCIO PORTO MAGNUM, 4150-801, Porto, Portugal","RUA DOMINGUEZ ALVAREZ, 44 ESCRITÓRIO 2.1 - EDIFÍCIO PORTO MAGNUM",4150-801,PORTO,Portugal,Amadeus
48.8462682,2.2609682,Acaplast,24 rue Erlanger  75016 Paris,,,,France,Hydrogen France
48.8311187,2.3764903,Accenture,118 avenue de France 75013 Paris,,,,France,Hydrogen France
40.51632895,-3.659205199680789,ACCIONAPLUG S.L.,"Avenida de Europa 10, PE La Moraleja, Alcobendas, Madrid, 28108, Spain",,,,Spain,Hydrogen Europe
40.337085,-3.812524,ACLIMAR,POLVORANCA 138 28923 ALCORCON MADRID,,,,Spain,Hydrogen Spain
47.097406,15.437253,ACONVEST GMBH,"Saumgasse 20, 8010, Graz, Austria",Saumgasse 20,8010,Graz,Austria,Hydrogen Austria
47.019491,15.499755,ACstyria Mobilitätscluster GmbH,"Parkring 1, 8074, Raaba-Grambach, Austria",Parkring 1,8074,Raaba-Grambach,Austria,Hydrogen Austria
45.037933,5.0574158,ACTEMIUM NDT E&S,"6 Rue Zamenhof, BOURG DE PEAGE, 26303, France",,,,France,Hydrogen Europe
51.6199791,-1.249328,Action Sealtite,"Moorbrook Southmead Industrial Park, Didcot OX11 7HP, United Kingdom",,,,United Kingdom,Hydrogen UK
53.76149135,-2.688678168779569,Acute Civil Engineering,"Suite 42, Manor Court Salesbury Hall, Manor Court, Salesbury Hall Rd, Ribchester, Preston PR3 3XR, United Kingdom",,,,United Kingdom,Hydrogen UK
45.7591969,4.9163203,ADECCO GROUP,"2 Rue Henri Legay, 69100 Villeurbanne, France",,,,France,Hydrogen France
51.2228252,6.7829655,ADEKA EUROPE GMBH,"BERLINER ALLEE 22, 40212, Düsseldorf, Deutschland",BERLINER ALLEE 22,40212,DÜSSELDORF,Germany,Amadeus
43.430237,5.266606,ADF Industrial Solutions,Chemin de la Bastide Blanche BAT G 13127 Vitrolles,,,,France,Hydrogen France
52.4269855,13.4898344,ADIBELLI MY WAY - OUR WAY UG (HAFTUNGSBESCHRÄNKT),"STUBENRAUCHSTR. 115, 12357, Berlin, Deutschland",STUBENRAUCHSTR. 115,12357,BERLIN,Germany,Amadeus
52.3826846,13.2765576,ADLARES GmbH,"Oderstr. 65, 14513, Teltow, Germany",Oderstr. 65,14513,Teltow,Germany,Hydrogen Germany
38.55575125,21.79068818393997,ADVANCED ENERGY TECHNOLOGIES ΜΟΝΟΠΡΟΣΩΠΗ Α.Ε.,"ΣΤΑΔΊΟΥ, ΠΛΑΤΆΝΙ, 26504, Αχαΐα, Griechenland","ΣΤΑΔΊΟΥ, ΠΛΑΤΆΝΙ",26504,ΠΆΤΡΑ,Greece,Amadeus
52.283575,6.7724884,ADVANCED SOLAR APPLICATIONS TECHNOLOGY B.V.,"VOSBOERWEG 24, 7556 BS, Hengelo, Niederlande",VOSBOERWEG 24,7556 BS,HENGELO OV,Netherlands,Amadeus
51.5646195,7.3106175,Advanced Training Technologies GmbH,"Am Förderturm 5 c, 44575, Castrop-Rauxel, Germany",Am Förderturm 5 c,44575,Castrop-Rauxel,Germany,Hydrogen Germany
37.9784151,23.7350094,Advent Technologies,"16 Panepistimiou St. 6th Floor, Athens, 10672, Greece",,,,Greece,Hydrogen Europe
57.025261,9.897156,ADVENT TECHNOLOGIES A/S,"LYNGVEJ 8, 9000, Aalborg, Dänemark",LYNGVEJ 8,9000,AALBORG,Denmark,Amadeus
45.020657,5.026965,AD-VENTA,140 rue du col des limouches 26300 CHATEAUNEUF SUR ISERE,,,,France,Hydrogen France
42.909809,-2.670241,AEG Power Solutions Ibérica S.A.,"C/ Albert Einstein, 31, 01510, Vitoria-Gasteiz, España",,,,Spain,Hydrogen Spain
40.6039019,-3.718452293668289,AeH2,"Ronda de Poniente,15, 1º Int. Izda. Tres Cantos, Madrid, 28760, Spain",,,,Spain,Hydrogen Europe
47.238286,6.014106,AER Bourgogne-Franche-Comté (Agence Economique),46 avenue Villarceau  25 000 BESANCON,,,,France,Hydrogen France
45.767482,4.851515,Aéroports de Lyon,"BP 113, Lyon-Saint Exupéry Aéroport, 69125, France",,,,France,Hydrogen Europe
41.3988585,2.1735243,AESA,Aragó 383 4a Planta | 08013 Barcelona,,,,Spain,Hydrogen Spain
51.1215918,-0.5304616973335944,AFC ENERGY PLC,"UNIT 71.4 DUNSFOLD PARK, GU6 8TB, Cranleigh, Vereinigtes Königreich",UNIT 71.4 DUNSFOLD PARK,GU6 8TB,CRANLEIGH,United Kingdom,Amadeus
51.4109757,7.4756783,AFEA ENERGY GMBH,"AUF DEM GRASKAMP 22, 58099, Hagen, Deutschland",AUF DEM GRASKAMP 22,58099,HAGEN,Germany,Amadeus
40.4190215,-3.7036459,AFRY Management Consulting,"Pl. del Marqués de Salamanca, 3, Salamanca, 28006 Madrid, Spain",,,,Spain,Hydrogen Spain
59.207871,10.940443,AGAPE HYDROGEN AS,"TORDENSKIOLDS GATE 9B, 1606, Fredrikstad, Norwegen",TORDENSKIOLDS GATE 9B,1606,FREDRIKSTAD,Norway,Amadeus
52.3400919,4.8725747,AGC Chemicals Europe,"Zuidplein 80, Amsterdam, 1077, Netherlands",,,,Netherlands,Hydrogen Europe
38.674731,-4.159637,Agencia de Investigación e Innovación de Castilla-La Mancha,"Calle Francia, 7, Puertollano, 13500, Spain",,,,Spain,Hydrogen Europe
52.4766288,13.3563938,Agentur für Erneuerbare Energien e.V.,"EUREF-Campus 16, 10829, Berlin, Germany",EUREF-Campus 16,10829,Berlin,Germany,Hydrogen Germany
51.177553,4.441696,AGFA,"Septestraat 27, Mortsel, 2640, Belgium",,,,Belgium,Hydrogen Europe
39.563158,-0.517326,AGFRA INGENIERIA,"Avenida de Beniparrell, 1 46183 Silla (Valencia) ESPAÑA",,,,Spain,Hydrogen Spain
48.252258,16.392674,AGGM Austrian Gas Grid Management AG,"Floridsdorfer Hauptstr. 1, Peak Vienna, 1210, Wien, Austria","Floridsdorfer Hauptstr. 1, Peak Vienna",1210,Wien,Austria,Hydrogen Austria
50.064485,19.923628,AGH University of Krakow,"al. Mickiewicza 30, 30-059 Kraków",al. Mickiewicza 30,30-059 Kraków,,Poland,Hydrogen Poland
50.06569725,19.9215034,AGH University of Science and Technology,"Aleja Adama Mickiewicza 30, 30-059 Krakow, Poland",,,,Poland,Hydrogen Europe Research
52.39930785,13.04998001813973,AGRIVERSA PRO BOVES VERWALTUNG GMBH,"HERMANN-ELFLEIN-STR. 17, 14467, Postdam, Deutschland",HERMANN-ELFLEIN-STR. 17,14467,POTSDAM,Germany,Amadeus
59.903693,10.624621,AHAD TO AS,"JOHN STRANDRUDS VEI 10, 1360, Bærum, Norwegen",JOHN STRANDRUDS VEI 10,1360,FORNEBU,Norway,Amadeus
38.393165,-6.400737,AIMEN Centro Tecnológico,"Edificio Armando Priegue, C/ Relva, 27 A, 36410 O Porriño, Pontevedra, Spain",,,,Spain,Hydrogen Spain
48.8777159,2.3040221,AIP,4 avenue Hoche 75008 Paris,,,,France,Hydrogen France
43.470614,5.598779,Air Flow,1200 avenue Olivier Perroy 13790 Rousset,,,,France,Hydrogen France
43.470614,5.598779,AIR LINK,"BATIMENT D RES LES PORTES DE ROUSSET, 1200 AVENUE OLIVIER PERROY, 13790, Bouches-du-Rhône, Frankreich","BATIMENT D RES LES PORTES DE ROUSSET, 1200 AVENUE OLIVIER PERROY",13790,ROUSSET,France,Amadeus
45.210239,5.647029,AIR LIQUIDE BIOGAS INTERNATIONAL,"2 RUE CLÉMENDÈRE, 38360, Isère, Frankreich",2 RUE CLÉMENDÈRE,38360,SASSENAGE,France,Amadeus
55.647259,12.284458,AIR LIQUIDE DANMARK A/S,"HØJE TAASTRUP VEJ 42, 2630, Høje-Taastrup, Dänemark",HØJE TAASTRUP VEJ 42,2630,TAASTRUP,Denmark,Amadeus
48.8618312,2.3045629,AIR LIQUIDE HYDROGENE,"6 RUE COGNACQ JAY, 75007, Paris, Frankreich",6 RUE COGNACQ JAY,75007,PARIS,France,Amadeus
51.9232371,4.473656,AIR LIQUIDE INDUSTRIE B.V.,"WEENA 312, 3012 NJ, Rotterdam, Niederlande",WEENA 312,3012 NJ,ROTTERDAM,Netherlands,Amadeus
51.247092,6.775832,AIR LIQUIDE INDUSTRIEGASE GMBH & CO. KG,"HANS-BÖCKLER-STR., 40476, Düsseldorf, Deutschland",HANS-BÖCKLER-STR.,40476,DÜSSELDORF,Germany,Amadeus
50.8775347,4.4331478,AIR LIQUIDE INDUSTRIES BELGIUM,"AVENUE DU BOURGET 44, 1130, Brussels-Capital Region, Belgien",AVENUE DU BOURGET 44,1130,BRUXELLES,Belgium,Amadeus
45.4817638,9.3275023,AIR LIQUIDE ITALIA PRODUZIONE SRL,"Via Dante Alighieri, 20090 Pioltello MI, Italy",,,,Italy,Amadeus
45.4518664,9.1175917,AIR LIQUIDE ITALIA S.P.A.,"Via Bisceglie, 66, 20152 Milano MI, Italy",,,,Italy,Amadeus
40.4475159,-3.6926919,AIR LIQUIDE Spain,"Paseo de la Castellana, 79, 28046, Madrid",,,,Spain,Hydrogen Spain
52.52843185,-1.842576950000001,AIR LIQUIDE UK LIMITED,"STATION ROAD, COLESHILL, B46 1JY, Birmingham, Vereinigtes Königreich","STATION ROAD, COLESHILL",B46 1JY,BIRMINGHAM,United Kingdom,Amadeus
58.1603231,8.0430619,AIR PRODUCTS AS,"VIGE HAVNEVEI 78, 4633, Kristiansand, Norwegen",VIGE HAVNEVEI 78,4633,KRISTIANSAND S,Norway,Amadeus
50.892194,4.459109,AIR PRODUCTS Belgium,"LEONARDO DA VINCILAAN 19C B.4, 1831, Halle-Vilvoorde, Belgien",LEONARDO DA VINCILAAN 19C B.4,1831,DIEGEM,Belgium,Amadeus
48.9022393,2.3695304,AIR PRODUCTS France,"BAT 221 PARC DES PORTES PARIS BAT 270, 45 AVENUE VICTOR HUGO, 93300, Seine-Saint-Denis, Frankreich","BAT 221 PARC DES PORTES PARIS BAT 270, 45 AVENUE VICTOR HUGO",93300,AUBERVILLIERS,France,Amadeus
51.4170596,7.201615995287249,AIR PRODUCTS GMBH,"AN DER KOST 3, 45527, Ennepe-Ruhr, Deutschland",AN DER KOST 3,45527,HATTINGEN,Germany,Amadeus
51.3676135,-0.3957073066885973,AIR PRODUCTS GROUP LIMITED,"HERSHAM PLACE TECHNOLOGY PARK, MOLESEY ROAD, KT12 4RZ, Walton-On-Thames, Vereinigtes Königreich","HERSHAM PLACE TECHNOLOGY PARK, MOLESEY ROAD",KT12 4RZ,WALTON-ON-THAMES,United Kingdom,Amadeus
51.4084396,7.1919814,AIR PRODUCTS HOLDINGS GMBH,"HÜTTENSTR., 45527, Ennepe-Ruhr, Deutschland",HÜTTENSTR.,45527,HATTINGEN,Germany,Amadeus
41.3540228,2.0813001,AIR PRODUCTS IBERICA S.L.,"AVENIDA FAMA, 1, 08940, Barcelona, Spanien","AVENIDA FAMA, 1",08940,CORNELLA DE LLOBREGAT,Spain,Amadeus
53.3204396,-6.2583108,AIR PRODUCTS IRELAND LIMITED,"UNIT 950, WESTERN INDUSTRIAL EST, KILLEEN ROAD, DUBLIN 12, D12 XP58, Dublin, Irland","UNIT 950, WESTERN INDUSTRIAL EST, KILLEEN ROAD, DUBLIN 12",D12 XP58,DUBLIN,Ireland,Amadeus
50.937559,4.426466,Air Products NV,"J.F. Willemsstraat 100, Vilvoorde, 1800, Belgium",,,,Belgium,Hydrogen Europe
48.1403069,17.1196887,"AIR PRODUCTS SLOVAKIA, S.R.O.","Pribinova 4, 811 09 Bratislava, Slovakia",,,,Slovakia,Amadeus
52.1837838,20.9667251,AIR PRODUCTS SP. Z O.O.,"KOMITETU OBRONY ROBOTNIKÓW 48, 02-146, Warszawa, Polen",KOMITETU OBRONY ROBOTNIKÓW 48,02-146,WARSZAWA,Poland,Amadeus
50.7687206,14.2034358,AIR PRODUCTS SPOL. S R.O.,"J. Š. BAARA 2063/21, 40502, Okres Děčín, Tschechische Republik",J. Š. BAARA 2063/21,40502,DĚČÍN,Czech Republic,Amadeus
59.341102,18.061672,AIRBONE TRAVELS AB,"RÅDMANSGATAN 33, 113 58, Stockholm, Schweden",RÅDMANSGATAN 33,113 58,STOCKHOLM,Sweden,Amadeus
43.625848,1.382666,Airbus Dewoitine,"2, rond-point Dewoitine, BP 90112, Blagnac Cedex, 31703, France",,,,France,Hydrogen Europe
43.6409955,1.3703129,AIRBUS PROTECT,36 rue Raymond Grimaud 31700 Blagnac,,,,France,Hydrogen France
43.626783,1.385495,Airbus SAS,"1 Rdpt Maurice Bellonte, 31700 Blagnac, France",,,,France,Hydrogen France
48.891914,2.25262,AIRE NOUVELLE,"49 RUE LOUIS BLANC, 92400, Hauts-de-Seine, Frankreich",49 RUE LOUIS BLANC,92400,COURBEVOIE,France,Amadeus
53.87067055,-1.8874569,AIREDALE CHEMICAL COMPANY LIMITED,"AIREDALE MILLS, SKIPTON ROAD, CROSS HILLS, BD20 7BX, Keighley, Vereinigtes Königreich","AIREDALE MILLS, SKIPTON ROAD, CROSS HILLS",BD20 7BX,KEIGHLEY,United Kingdom,Amadeus
48.269137,16.4266762,AIT Austrian Institute of Technology GmbH,"Giefinggasse 4, 1210, Wien, Austria",Giefinggasse 4,1210,Wien,Austria,Hydrogen Austria
50.326453,19.191737,Akademia WSB,"Cieplaka 1c, 41-300 D?browa Górnicza",Cieplaka 1c,41-300 D?browa Górnicza,,Poland,Hydrogen Poland
59.903693,10.624621,AKER CARBON CAPTURE ASA,"JOHN STRANDRUDS VEI 10, 1360, Bærum, Norwegen",JOHN STRANDRUDS VEI 10,1360,FORNEBU,Norway,Amadeus
59.3402363,18.0688362,AKER CARBON CAPTURE SWEDEN AB,"Eriksbergsgatan 10, 114 30 Stockholm, Sweden",,,,Sweden,Amadeus
59.954734,11.04212,Akershus Energi AS,"Brogata 7, 2000 Lillestrøm, Norway",,,,Norway,Amadeus
45.761732,4.8458117,Aklea,29 rue de Bonnel 69003 Lyon,,,,France,Hydrogen France
57.7207288,11.9235319,ÅKRESÉK TEKNIK AB,"C/O SEBASTIAN SECO PON, ANNA LESSELSGATAN 6 B LGH 1101, 417 16, Västra Götaland, Schweden","C/O SEBASTIAN SECO PON, ANNA LESSELSGATAN 6 B LGH 1101",417 16,GÖTEBORG,Sweden,Amadeus
53.9041266,12.28405422458594,AKROS ENERGY GMBH,"HANS-ADAM-ALLEE 1, 18299, Mecklenburg-Vorpommern, Deutschland",HANS-ADAM-ALLEE 1,18299,LAAGE,Germany,Amadeus
40.467227,-3.688012,"AL AIR LIQUIDE ESPAÑA, SA","CALLE AGUSTIN DE FOXA, 4 PLANTA 4, 28036, Madrid, Spanien","CALLE AGUSTIN DE FOXA, 4 PLANTA 4",28036,MADRID,Spain,Amadeus
48.2592477,11.4354419,Alantum Europe GmbH,"Balanstr. 73 / Geb. 21A, 81541, München, Germany",Balanstr. 73 / Geb. 21A,81541,München,Germany,Hydrogen Germany
43.2093586,-3.1430773,"ALBA EMISSION FREE ENERGY, S.A.","Barrio San Martín, 5, Muskiz, 48550, Spain",,,,Spain,Hydrogen Europe
38.9856959,-1.8700256,Albacete,"Parque Empresarial Ajusa, Calle 2, 02006, Albacete, Spain","Parque Empresarial Ajusa, Calle 2",02006,Albacete,Spain,Hydrogen Refuelling Stations | European Hydrogen Observatory (europa.eu)
47.9651461,7.9573306,Albert-Ludwigs-Universität Freiburg,"Georges-Köhler-Allee 103, 79110, Freiburg im Breisgau, Germany",Georges-Köhler-Allee 103,79110,Freiburg im Breisgau,Germany,Hydrogen Germany
47.6675882,-2.7841722,Alca Torda Applications,Centre d'Affaires Laroiseau - 1 rue Anita Conti - 56000 VANNES,,,,France,Hydrogen France
51.5142534,-0.1117964,Alcazar,"7 Bell Yard, London, WC2A 2JR",,,,United Kingdom,Hydrogen UK
41.4282326,2.1984875,ALCOHOLES MONTPLET SAU,"Vía Trajana, 53-59, Sant Martí, 08020 Barcelona, Spain",,,,Spain,Amadeus
48.223865,16.392535,ALCON OPHTHALMIKA GMBH,"AM TABOR 44 TOP 3.05.C, 1020, Wien, Österreich",AM TABOR 44 TOP 3.05.C,1020,WIEN,Austria,Amadeus
45.299631,8.411297,ALCOPLAST SRL,"VIA ETTORE ARA 48, 13100, Vercelli, Italien",VIA ETTORE ARA 48,13100,VERCELLI,Italy,Amadeus
48.887919,2.244068,ALDER HOLDINGS SAS,"23 27 TOUR DEFENSE PLAZA, 23 RUE DELARIVIERE LEFOULLON, 92800, Hauts-de-Seine, Frankreich","23 27 TOUR DEFENSE PLAZA, 23 RUE DELARIVIERE LEFOULLON",92800,PUTEAUX,France,Amadeus
37.295675,-6.046661,ALENER Solar,"Calle Esclusa Número 11 Edificio Galia Puerto, 1ª planta, 41011 Sevilla, Spain",,,,Spain,Hydrogen Spain
45.71429424999999,4.928567164043733,Alfa Laval,"Immeuble Confluence, 117 All. des Parcs, 69800 Saint-Priest, France",,,,France,Hydrogen France
40.530649,-3.650279107380586,Alfa Laval Iberia SA,"C. de Francisco Gervás, 4, 2ª planta, 28108 Alcobendas, Madrid, Spain",,,,Spain,Hydrogen Spain
55.7249307,13.15724074840283,Alfa Laval Technologies AB,"Rudeboksvägen 1, Lund, 226 55, Sweden",,,,Sweden,Hydrogen Europe
50.8175155,4.3959196,Aliaxis Group SA,"15-23 avenue Arnaud Fraiteur, Brussels, 1050, Belgium",,,,Belgium,Hydrogen Europe
51.1527818,17.1327853,ALIGN TECHNOLOGY AFAB POLAND SP. Z O.O.,"BIERUTOWSKA 44, 51-317, Wrocław, Polen",BIERUTOWSKA 44,51-317,WROCŁAW,Poland,Amadeus
51.9700011,5.9399146,ALLEGO HOLDING B.V.,"WESTERVOORTSEDIJK 73 KB, 6827 AV, Arnhem, Niederlande",WESTERVOORTSEDIJK 73 KB,6827 AV,ARNHEM,Netherlands,Amadeus
60.383344,17.258273,ALLEIMA ROCK DRILL STEEL AB,"Mellanverksvägen, Östra Verken, 815 75 Söderfors, Sweden",,,,Sweden,Amadeus
59.33521795,18.08052650980451,ALLEIMA STRIPTECH AB,"Storgatan 2, 811 81 Sandviken, Sweden",,,,Sweden,Amadeus
48.2548432,12.41499255085633,ALLOTHERME-ENERGIE 24 UG (HAFTUNGSBESCHRÄNKT),"HOFGASSE 3, 84539, Mühldorf, Deutschland",HOFGASSE 3,84539,AMPFING,Germany,Amadeus
47.343201,13.196798,AllWin-consult e.U.,"Stöcklhubstrasse 15, 5600, St. Johann in Salzburg, Austria",Stöcklhubstrasse 15,5600,St. Johann in Salzburg,Austria,Hydrogen Austria
59.933304,10.861105,Alna,"Nedre Kalbakkvei 96, 1081, Oslo, Norway",Nedre Kalbakkvei 96,1081,Oslo,Norway,Hydrogen Refuelling Stations | European Hydrogen Observatory (europa.eu)
47.725239,12.8798296,ALPENA ENERGY SOLUTIONS GMBH,"LUDWIGSTR. 31 C, 83435, Berchtesgadener Land, Deutschland",LUDWIGSTR. 31 C,83435,BAD REICHENHALL,Germany,Amadeus
53.573986,10.070329,ALPHA E-STREAM GMBH,"WANDSBEKER ALLEE 77, 22041, Hamburg, Freie und Hansestadt, Deutschland",WANDSBEKER ALLEE 77,22041,HAMBURG,Germany,Amadeus
47.249225,6.0272524,ALPHAGREEN DEVELOPPEMENT,"20 RUE DU CHASNOT, 25000, Doubs, Frankreich",20 RUE DU CHASNOT,25000,BESANCON,France,Amadeus
51.788364,1.150171858371707,ALPHASENSE LIMITED,"Sensor Technology House 300 Avenue West, Skyline 120, Great Notley, Braintree CM77 7AA, United Kingdom",,,,United Kingdom,Amadeus
46.518746,6.628594,Alpiq,Ch. de Mornex 10 CH - 1001 Lausanne (Suisse),,,,Switzerland,Hydrogen France
48.914934,2.330397,ALSTOM France,48 rue Albert Dhalenne 93482 Saint-Ouen-sur-Seine,,,,France,Hydrogen France
40.4446517,-3.658039,ALSTOM Spain,"Calle Martínez Villergas 49 - Edificio V, 28027 Madrid, Spain",,,,Spain,Hydrogen Spain
43.402726,10.85858,ALTAIR CHEMICAL S.R.L.,"VIA MOIE VECCHIE 13, 56048, Pisa, Italien",VIA MOIE VECCHIE 13,56048,VOLTERRA,Italy,Amadeus
46.6114166,14.32904854768761,ALTEREGO INNOVATION GMBH,"PRIMOSCHGASSE 3, 9020, Kärnten, Österreich",PRIMOSCHGASSE 3,9020,KLAGENFURT AM WÖRTHERSEE,Austria,Amadeus
46.148254,-1.152643,ALTERNATIVES ENERGIES,"52 RUE SENAC DE MEILHAN, 17000, Charente-Maritime, Frankreich",52 RUE SENAC DE MEILHAN,17000,LA ROCHELLE,France,Amadeus
45.012825,-0.530755,Ambès Nouryon,,,,Ambès,France,Hydrogen Production | European Hydrogen Observatory (europa.eu)
52.1637138,5.4237595,Amersfoort,"De Windturbine 1-3, 3815 KP, Amersfoort, Niederlande",De Windturbine 1-3,3815 KP,Amersfoort,Netherlands,Hydrogen Refuelling Stations | European Hydrogen Observatory (europa.eu)
56.46643035,-2.998568263678814,Ames Goldsmith Ceimig,"1-3, Wester Gourdie Industrial Estate, Smeaton Rd, West Gourdie Industrial Estate, Dundee DD2 4UT, United Kingdom",,,,United Kingdom,Hydrogen UK
49.37113,0.09058,Améthyste,1 Chemin des Frémonts 14360 Trouville Sur Mer,,,,France,Hydrogen France
52.3999521,4.7955505,Amsterdam | Australiehavenweg,"Australiëhavenweg 116, 1046 BR, Amsterdam, Netherlands",Australiëhavenweg 116,1046 BR,Amsterdam,Netherlands,Hydrogen Refuelling Stations | European Hydrogen Observatory (europa.eu)
52.26034,4.685727,Amsterdam | Den Ruygenhoek,"Rijksweg A4 Oz 1, 2132 MA, Hoofddorp, Netherlands",Rijksweg A4 Oz 1,2132 MA,Hoofddorp,Netherlands,Hydrogen Refuelling Stations | European Hydrogen Observatory (europa.eu)
52.3962377,4.80093,Amsterdam | Westpoort,"Galwin 6, 1046 AW, Amsterdam, Netherlands",Galwin 6,1046 AW,Amsterdam,Netherlands,Hydrogen Refuelling Stations | European Hydrogen Observatory (europa.eu)
51.6385322,5.9469234,AMT GROUP B.V.,"MEREL 3 A, 5831 MS, Noord-Brabant, Niederlande",MEREL 3 A,5831 MS,BOXMEER,Netherlands,Amadeus
36.778494,-6.360868,AMT VENTUS OFFSHORE SL.,"CALLE NAO SAN ANTONIO, 9 PISO 1 C, 11540, Cádiz, Spanien","CALLE NAO SAN ANTONIO, 9 PISO 1 C",11540,SANLUCAR DE BARRAMEDA,Spain,Amadeus
62.4803601,14.78482398656268,ÅNDBERG VIND AB,"504, 842 95 Lillhärdal, Sweden",,,,Sweden,Amadeus
40.409318,-3.6702447,Andersen,"C. de Velázquez, 108, 110, Salamanca, 28006 Madrid, Spain",,,,Spain,Hydrogen Spain
47.106601,15.4202248,Andritz AG,"Stattegger Strasse 18, 8045 Graz, Austria",,,,Austria,Hydrogen Spain
48.1695344,16.336172,Andritz AG Wien,"Eibesbrunnergasse 20, 1120, Wien, Austria",Eibesbrunnergasse 20,1120,Wien,Austria,Hydrogen Austria
63.4124391,10.4006107,ANEO HYDROGEN AS,"KLÆBUVEIEN 118, 7031, Trondheim, Norwegen",KLÆBUVEIEN 118,7031,TRONDHEIM,Norway,Amadeus
38.74519085,-9.098122319205318,"ÂNGELO COIMBRA, S.A.","ZONA INDUSTRIAL DA MAIA I SECTOR IV, 10 LOTE 55 - ZONA INDUSTRIAL DA MAIA I SECTOR IV, 4470-459, Maia, Portugal","ZONA INDUSTRIAL DA MAIA I SECTOR IV, 10 LOTE 55 - ZONA INDUSTRIAL DA MAIA I SECTOR IV",4470-459,MAIA,Portugal,Amadeus
51.51872695,-0.1056315909009417,Anglo American,"17 Charterhouse St, London, EC1N 6RA",,,,United Kingdom,Hydrogen UK
51.520422,-0.100566,ANGLO AMERICAN CAPITAL AUSTRALIA LIMITED,"17 CHARTERHOUSE STREET, EC1N 6RA, London EC1N, Vereinigtes Königreich",17 CHARTERHOUSE STREET,EC1N 6RA,LONDON,United Kingdom,Amadeus
47.1727077,8.514152,Anglo Platinum Marketing,"Gotthardstrasse 20, Zug, 6300, Switzerland",,,,Switzerland,Hydrogen Europe
40.495332,-3.732937,ANISOL Equipos SL,"Rascafría, 3. - Pol. Ind. Ventorro del Cano -28925 Alcorcón (Madrid)",,,,Spain,Hydrogen Spain
54.0155935,10.01507424476744,ANLAGENTECHNIK THIEL GMBH & CO. KG,"KORNSTIEG 7, 24537, Neumünster, Deutschland",KORNSTIEG 7,24537,NEUMÜNSTER,Germany,Amadeus
50.9889329,5.7790094,ANQORE TOPCO B.V.,"MAURITSLAAN 49, 6129 EL, Stein, Niederlande",MAURITSLAAN 49,6129 EL,URMOND,Netherlands,Amadeus
44.4279703,8.8843274,Ansaldo Energia,"Via N. Lorenzi 8, Genoa, 16152, Italy",,,,Italy,Hydrogen Europe
36.5643933,-4.8563284,ANSASOL S.L.,"Paseo de Bolivia, 238, Elviria, (29604) Marbella",,,,Spain,Hydrogen Spain
45.8365597,4.6946382,Antelia,ZA des Grandes Terres – 1305 Route de Lozanne 69380 Dommartin,,,,France,Hydrogen France
43.561736,7.019999,ANTHEMIS,"JULES FELLEGARA, 15 RUE MAL DES LOGIS J FELLEGARA, 06400, Alpes-Maritimes, Frankreich","JULES FELLEGARA, 15 RUE MAL DES LOGIS J FELLEGARA",06400,CANNES,France,Amadeus
40.429222,-3.693774,Antuko Comercialización Sucursal España,"C/ Almagro 22, 5ta Planta, 28010, Madrid",,,,Spain,Hydrogen Spain
51.14965815,4.380490121547133,Antwerpen | Boomsesteenweg,"Boomsesteenweg 950, 2610, Antwerpen, Belgien",Boomsesteenweg 950,2610,Antwerpen,Belgium,Hydrogen Refuelling Stations | European Hydrogen Observatory (europa.eu)
51.237322,4.40827,Antwerpen | Mexicostraat,"Mexicostraat 11, 2030, Antwerpen, Belgium",Mexicostraat 11,2030,Antwerpen,Belgium,Hydrogen Refuelling Stations | European Hydrogen Observatory (europa.eu)
51.5827385,7.1500152,ANWENDERZENTRUM H2HERTEN GMBH,"HERNER STR. 21, 45699, Recklinghausen, Deutschland",HERNER STR. 21,45699,HERTEN,Germany,Amadeus
59.820899,10.803965,AOB AS,"SKOGKANTEN 19B, 1410, Nordre Follo, Norwegen",SKOGKANTEN 19B,1410,KOLBOTN,Norway,Amadeus
40.4313894,-3.6834396,Aon,"C. de Velázquez, 86D, Salamanca, 28006 Madrid, Spain",,,,Spain,Hydrogen Spain
43.488093,5.357675,AP2E,"Les Méridiens, Bat A   240 Rue Louis de Broglie   CS90537   13593 Aix en Provence Cedex 03   France",,,,France,Hydrogen France
48.889879,2.254564,APAVE,6 rue du Général Audran 92400 Courbevoie,,,,France,Hydrogen France
46.54907575,23.8836172,APEMIN ZIZIN SA,"Strada Horea 13, Zizin 507223, Romania",,,,Romania,Amadeus
50.615091,2.476635,Aperam,"Rue Pierre Loti 53, Isbergues, 62330, France",,,,France,Hydrogen Europe
47.356845,7.972071,APEX AG,"INDUSTRIESTRASSE 31, 4658, Solothurn, Schweiz",INDUSTRIESTRASSE 31,4658,DÄNIKEN SO,Switzerland,Amadeus
52.50076555,13.45204335,APOLLINARIS BRANDS GMBH,"STRALAUER ALLEE 4, 10245, Berlin, Deutschland",STRALAUER ALLEE 4,10245,BERLIN,Germany,Amadeus
59.6286165,9.6303417,APPLIED HYDROGEN AS,"BERGMANNSVEIEN 240, 3615, Kongsberg, Norwegen",BERGMANNSVEIEN 240,3615,KONGSBERG,Norway,Amadeus
50.95651,3.55473,APPLITEK,"VENECOWEG 19, 9810, Ghent, Belgien",VENECOWEG 19,9810,NAZARETH,Belgium,Amadeus
40.448536,-3.580917,Applus+,"Calle Campezo 1, Parque Empresarial Las Mercedes, edificio 3",,,,Spain,Hydrogen Spain
41.6218131,-8.4723723,APREN,"Avenida da República 59 - 2º andar 59 - 2º andar, Lisboa, 1050-189, Portugal",,,,Portugal,Hydrogen Europe
37.9543221,-8.8747084,"APS - Administração dos Portos de Sines e do Algarve, SA","Rua do Porto Industrial 12, Sines, Portugal",,,,Portugal,Hydrogen Europe
52.471394,16.8886498,APVACUUM Sp. z o.o.,"Klonowa 24, 62-002 Suchy Las",Klonowa 24,62-002 Suchy Las,,Poland,Hydrogen Poland
64.500795,10.913609,AQS AS,"SLIPERIVEIEN 19, 7770, Flatanger, Norwegen",SLIPERIVEIEN 19,7770,FLATANGER,Norway,Amadeus
46.4966066,20.7015134,Aquamarine,,,,Kardoskut,Hungary,Hydrogen Production and Consumption Projects | European Hydrogen Observatory (europa.eu)
54.18173885,7.890080211425081,AQUAVENTUS FÖRDERVEREIN E.V.,"Lung Wai 28, 27498 Helgoland, Germany",,,,Germany,Amadeus
42.225063,-0.578859,Aragon Hydrogen Foundation (FHA),"Parque tecnológico Walqa Ctra. N-330a, 22197 Huesca, Aragon Spain",,,,Spain,Hydrogen Europe Research
52.0775809,4.3368518,Aramco Overseas Company B.V.,"Prinses Beatrixlaan 35, AK Den Haag, 2595, Netherlands",,,,Netherlands,Hydrogen Europe
56.6649947228489,-2.52812163682435,Arbikie Distrillery,,,,Montrose,United Kingdom,Hydrogen Production and Consumption Projects | European Hydrogen Observatory (europa.eu)
41.1165686,1.2557446,ARCAMO GROUP,"Carrer del Coure 1, Polígono Industrial Riu Clar, Apt. 3077, 43006 Tarragona, Spain",,,,Spain,Hydrogen Spain
51.184015,3.831202,ArcelorMittal,"John Kennedylaan 51, Gent, 9042, Belgium",,,,Belgium,Hydrogen Europe
37.488595,14.062999,ARCHIMEDE S.R.L. SOCIETA' DI INGEGNERIA,"CSO UMBERTO I 211, 93100, Caltanissetta, Italien",CSO UMBERTO I 211,93100,CALTANISSETTA,Italy,Amadeus
38.031194,23.7725992231025,ARCHIPETROL ΜΟΝΟΠΡΟΣΩΠΗ Α.Ε.,"Ι. ΜΕΤΑΞΆ 80, 19441, Αττική, Griechenland",Ι. ΜΕΤΑΞΆ 80,19441,ΚΟΡΩΠΊ,Greece,Amadeus
59.4267324,10.4884189,ARCTIC POWER AS,"BYGG 15 NEDRE VEI 8, 3183, Horten, Norwegen",BYGG 15 NEDRE VEI 8,3183,HORTEN,Norway,Amadeus
45.291541,12.06234,AREA B S.R.L.,"VIA ALESSIO VALERIO 62, 35028, Padova, Italien",VIA ALESSIO VALERIO 62,35028,PIOVE DI SACCO,Italy,Amadeus
43.5770571,1.4790335,AREC INNOVATION,"55 AVENUE LOUIS BREGUET, 31400, Haute-Garonne, Frankreich",55 AVENUE LOUIS BREGUET,31400,TOULOUSE,France,Amadeus
37.403364,-6.006057,ARENA,"Edificio Insur Cartuja, Calle Albert Einstein, s/n, 5ª planta, 41092, Sevilla, España",,,,Spain,Hydrogen Spain
52.3989033,4.8063086,Argent Energy,"Hornweg 61, Amsterdam, 1044 AN, Netherlands",,,,Netherlands,Hydrogen Europe
51.6625,6.7042,ARGO-ANLEG TANK SYSTEMS GMBH,"AM SCHORNACKER 59, 46485, Wesel, Deutschland",AM SCHORNACKER 59,46485,WESEL,Germany,Amadeus
47.5753182,7.8378246,ARGOVIA HYDROGEN AG,"GERMANENSTRASSE 10, 4313, Aargau, Schweiz",GERMANENSTRASSE 10,4313,MÖHLIN,Switzerland,Amadeus
48.839419,2.30157,Arhyze,281 rue de Vaugirard 75015 Paris,,,,France,Hydrogen France
47.467443,-0.540813,ARHYZE Angers,"22 Rue Roger Groizeleau, 49100 Angers, France",,,,France,Amadeus
44.860911,-0.699715,ArianeGroup,"3 Rue de Touban, 33185 Le Haillan, France",,,,France,Hydrogen France
40.6039019,-3.718452293668289,ARIEMA ENERGÍA Y MEDIOAMBIENTE S.L.,"C/ Ronda de Poniente 15, 1º Planta Izquierda B  28760 Tres Cantos, Madrid",,,,Spain,Hydrogen Spain
40.425628,-3.716995,ARILA ENERGIA RENOVABLE SL.,"CALLE FERRAZ, 3 PISO 2 OFICINA 4, 28807, Madrid, Spanien","CALLE FERRAZ, 3 PISO 2 OFICINA 4",28807,ALCALA DE HENARES,Spain,Amadeus
42.1742118,-1.5944058,"Arizaga, Bastarrica y Cía, S.A.",20600,,,,Spain,Hydrogen Spain
48.9086455,2.2295618,ARKEMA FRANCE,"420 RUE D ESTIENNE D ORVES, 92700, Hauts-de-Seine, Frankreich",420 RUE D ESTIENNE D ORVES,92700,COLOMBES,France,Amadeus
51.2527742,6.7633152,ARKEMA GMBH,"TERSTEEGENSTR. 28, 40474, Düsseldorf, Deutschland",TERSTEEGENSTR. 28,40474,DÜSSELDORF,Germany,Amadeus
46.2015056,6.1484337,ARKEMA INTERNATIONAL SA,"C/O VISCHER GENEVE SARL, RUE DU CLOÎTRE 4, 1204, Geneva, Schweiz","C/O VISCHER GENEVE SARL, RUE DU CLOÎTRE 4",1204,GENÈVE,Switzerland,Amadeus
52.749966,18.239413,ARKEMA SP. Z O.O.,"PRZEMYSŁOWA, 88-100, Inowrocławski, Polen",PRZEMYSŁOWA,88-100,INOWROCŁAW,Poland,Amadeus
40.46664,-3.671313,ARMONIA GREEN GALICIA SL.,"CALLE CARDENAL MARCELO SPINOLA, 4 1, 28016, Madrid, Spanien","CALLE CARDENAL MARCELO SPINOLA, 4 1",28016,MADRID,Spain,Amadeus
51.9704712,5.9466214,Arnhem,"Westervoortsedijk 71 C, 6827 AV, Arnhem, Netherlands",Westervoortsedijk 71 C,6827 AV,Arnhem,Netherlands,Hydrogen Refuelling Stations | European Hydrogen Observatory (europa.eu)
48.8759316,2.3303682,ARTELYS SAS,"81 rue Saint Lazare, Paris, 75009, France",,,,France,Hydrogen Europe
48.10338445,11.41764340699274,ARTHUR BUS GmbH,"Hubertusstr. 3, Planegg, 82152, Germany",,,,Germany,Hydrogen Europe
47.6447023,-1.6622592,ARTIS,"Parc d'Activité des Estuaires, 309 avenue Lavoisier 44590 Derval",,,,France,Hydrogen France
40.4884228,-3.670718822213856,ARVENG TRAINING & ENGINEERING,"Av. de Manoteras, 10. Edificio B, Oficina 111, Madrid (28050), España.",,,,Spain,Hydrogen Spain
47.231396,-1.628699,AS 24,"PARC TERTIAIRE AR MOR, 1 BOULEVARD DU ZENITH, 44800, Loire-Atlantique, Frankreich","PARC TERTIAIRE AR MOR, 1 BOULEVARD DU ZENITH",44800,ST HERBLAIN,France,Amadeus
40.95106,17.286127,AS LABRUNA S.R.L.,"CNT SANTO STEFANO 72, 70043, Bari, Italien",CNT SANTO STEFANO 72,70043,MONOPOLI,Italy,Amadeus
43.6203981,3.8497157,ASA Hérault,"Résidence le Rimbaud, Bât A, 577 Avenue du Professeur Louis Ravas 34080 Montpellier",,,,France,Hydrogen France
51.21137405,6.736852583403479,Asahi Kasei Europe,"Fringsstrasse 17, Dusseldorf, 40221, Germany",,,,Germany,Hydrogen Europe
60.4727154,5.3349483,Åsane,"Liamyrane 2, 5132, Nyborg, Norway",Liamyrane 2,5132,Nyborg,Norway,Hydrogen Refuelling Stations | European Hydrogen Observatory (europa.eu)
53.3842167,-2.3520084,ASCEND PERFORMANCE MATERIALS EUROPEAN LIMITED,"3RD FLOOR, 1 ASHLEY ROAD, WA14 2DT, Altrincham, Vereinigtes Königreich","3RD FLOOR, 1 ASHLEY ROAD",WA14 2DT,ALTRINCHAM,United Kingdom,Amadeus
47.557448,9.36955,ASCO KOHLENSÄURE AG,"INDUSTRIESTRASSE 2, 8590, Thurgau, Schweiz",INDUSTRIESTRASSE 2,8590,ROMANSHORN,Switzerland,Amadeus
40.438905,-3.621147,Asea Brown Boveri S.A.,"San Romualdo 13, 28037, Madrid",,,,Spain,Hydrogen Spain
53.0369624,-2.9395441,Ash Group,"Unit 16 Clywedog Rd S, Wrexham LL13 9AE, United Kingdom",,,,United Kingdom,Hydrogen UK
43.515212,-5.724923,"Asistencia Técnica Industrial Asturiana, S.A.",C/José Llama Fdez Nº12 Pol. Somonte 33393 Gijón Asturias,,,,Spain,Hydrogen Spain
63.3432724721887,10.3733299991462,ASKO Midt-Norge HRS,,,,Trondheim,Norway,Hydrogen Production | European Hydrogen Observatory (europa.eu)
38.079783,-1.224932,Asociación Sectorial del Hidrógeno Verde de la Región de Murcia AHMUR,Calle Gabriel Campillo s/n  Polígono Industrial La Serreta 30500 Molina de Segura,,,,Spain,Hydrogen Spain
39.2106099,9.0018424,Assemini EniChem,,,,Assemini,Italy,Hydrogen Production | European Hydrogen Observatory (europa.eu)
53.0262384,6.5763312,Assen,"Duitslandlaan 1, 9403 DL, Assen, Netherlands",Duitslandlaan 1,9403 DL,Assen,Netherlands,Hydrogen Refuelling Stations | European Hydrogen Observatory (europa.eu)
48.8866288,2.2445769,Association Française des Gaz Comprimés,14 rue de la République - Le Diamant A 92800 Puteaux,,,,France,Hydrogen France
46.2269862,7.361865022072019,ASSOCIATION HYDROPÔLE,"C/O EPFL VALAIS/WALLIS ENERGYPOLIS, RUE DE L'INDUSTRIE 17, 1950, Valais, Schweiz","C/O EPFL VALAIS/WALLIS ENERGYPOLIS, RUE DE L'INDUSTRIE 17",1950,SION,Switzerland,Amadeus
48.2019656,16.3745306,Association of Gas - and District Heating Supply Companies (FGW),"Schubertring 14, Vienna, 1010, Austria",,,,Austria,Hydrogen Europe
45.644741,5.86792,ATAWEY,"17 AVENUE DU LAC LEMAN, AVENUE DU LAC D ANNECY, 73370, Savoie, Frankreich","17 AVENUE DU LAC LEMAN, AVENUE DU LAC D ANNECY",73370,LE BOURGET DU LAC,France,Amadeus
40.4353467,-3.6863216,ATAWEY SAS,"Calle Serrano 110, 28006, Madrid",,,,Spain,Hydrogen Spain
52.2888816,-1.8954959,ATEQ,"Unit 71, Washford Industrial Estate, Heming Rd, Redditch, B98 0EA",,,,United Kingdom,Hydrogen UK
43.227164,1.633501,ATESyn,NAVASOL - EcoCentre d’Affaires - ZI Les Pignès Lot 28 09270 Mazères,,,,France,Hydrogen France
48.8530191,2.3896788,ATH,"9 RUE ALEXANDRE DUMAS, 75011, Paris, Frankreich",9 RUE ALEXANDRE DUMAS,75011,PARIS,France,Amadeus
46.1845933,-1.1462007,ATLANTECH ENERGIE,"8 RUE ISABELLE AUTISSIER, 17140, Charente-Maritime, Frankreich",8 RUE ISABELLE AUTISSIER,17140,LAGORD,France,Amadeus
40.4334073,-3.6729877,Atlantica Sustainable Infrastructure,"Calle Francisco Silvela 42, 28028 Madrid",,,,Spain,Hydrogen Spain
47.266051,11.343923,Atlanto e.U.,"Franz-Baumann-Weg 22 / 37, 6020, Innsbruck, Austria",Franz-Baumann-Weg 22 / 37,6020,Innsbruck,Austria,Hydrogen Austria
66.022206,12.634616,ATLAS AGRO HOLDING AS,"ETASJE 3 SKANSEN KJØPESENTER TOROLV KVELDULVSONS GATE 26, 8800, Alstahaug, Norwegen",ETASJE 3 SKANSEN KJØPESENTER TOROLV KVELDULVSONS GATE 26,8800,SANDNESSJØEN,Norway,Amadeus
49.04882,2.195279,Atlas Copco,14 avenue Louis Blériot  95740 Frépillon,,,,France,Hydrogen France
53.7990817,-1.4791498,ATOME Energy PLC,"Carrwood Park, Selby Road, Leeds, LS15 4LG",,,, United Kingdom,Hydrogen UK
53.7869368,-1.403672873909986,ATOME PLC,"CARRWOOD PARK SELBY ROAD, LS15 4LG, Leeds, Vereinigtes Königreich",CARRWOOD PARK SELBY ROAD,LS15 4LG,LEEDS,United Kingdom,Amadeus
52.2642489,6.8935041,ATOMICONE B.V.,"VLIEGVELDWEG 323, 7524 PT, Enschede, Niederlande",VLIEGVELDWEG 323,7524 PT,ENSCHEDE,Netherlands,Amadeus
48.7862,11.407539,Audi,"Ettinger Str, Ingolstadt, 85057, Germany",,,,Germany,Hydrogen Europe
48.7630165,11.4250395,AUDI Aktiengesellschaft,"Auto-Union-Str. 1, 85057, Ingolstadt, Germany",Auto-Union-Str. 1,85057,Ingolstadt,Germany,Hydrogen Germany
52.8518701,7.6764179,Audi e-gas,,,,Werlte,Germany,Hydrogen Production | European Hydrogen Observatory (europa.eu)
37.2500684,15.2216971,Augusta Sonatrach,,,,Augusta,Italy,Hydrogen Production | European Hydrogen Observatory (europa.eu)
51.9226542,7.3716744,AUTOHAUS GEHRMANN GMBH,"OTTO-HAHN-STR. 17, 48301, Coesfeld, Deutschland",OTTO-HAHN-STR. 17,48301,NOTTULN,Germany,Amadeus
48.1371079,11.5753822,AUTOMATION W + R GmbH,"Messerschmittstr. 7, 80992, München, Germany",Messerschmittstr. 7,80992,München,Germany,Hydrogen Germany
47.94702100000001,0.208726214127464,Automobile Club de l'Ouest (ACO),Circuit des 24 Heures du Mans 72000 Le Mans,,,,France,Hydrogen France
46.1921368,6.1293435,AUTONEXT STAR SA,"RUE VIGUET 1, 1227, Geneva, Schweiz",RUE VIGUET 1,1227,LES ACACIAS,Switzerland,Amadeus
49.1774768,9.4384654,Autoproc GmbH & Co. KG,"Ringstr. 43, 74626, Bretzfeld, Germany",Ringstr. 43,74626,Bretzfeld,Germany,Hydrogen Germany
49.547545,22.21778,AUTOSAN SP. Z O.O.,"Lipi?skiego 109, 38-500 Sanok",Lipi?skiego 109,38-500 Sanok,,Poland,Hydrogen Poland
47.788991,3.593093,AUXHYGEN,"POLE ENVIRONNEMENTAL, RUE DES PLAINES DE L'YONNE, 89000, Yonne, Frankreich","POLE ENVIRONNEMENTAL, RUE DES PLAINES DE L'YONNE",89000,AUXERRE,France,Amadeus
47.8031609515491,3.58821986608128,AuxHyGen/Auxr H2,,,,Auxerre,France,Hydrogen Production | European Hydrogen Observatory (europa.eu)
52.2280555,11.01714828413927,AVACON AG,"SCHILLERSTR. 3, 38350, Helmstedt, Deutschland",SCHILLERSTR. 3,38350,HELMSTEDT,Germany,Amadeus
40.416997,-3.689251,Avalon Renovables,"Calle Alfonso XII, nº 20, 28014, Madrid",,,,Spain,Hydrogen Spain
49.4363083,7.7685742,AVANSURE UG (HAFTUNGSBESCHRÄNKT),"Bahnhofstraße 1, 67655 Kaiserslautern, Germany",,,,Germany,Amadeus
44.8918596,4.8890221,AVENTECH,"8 Allée Charles Baron, 26000 Valence",,,,France,Hydrogen France
48.8913322,2.3417503,Avere France,112 quater rue Marcadet 75018 Paris,,,,France,Hydrogen France
40.99416,14.2077,AVERSANA GAS S.R.L.,"VIA ROMA 308, 81030, Caserta, Italien",VIA ROMA 308,81030,TEVEROLA,Italy,Amadeus
43.5589523,-5.9246653,Aviles Nippon Gases Europe,,,,Aviles,Spain,Hydrogen Production | European Hydrogen Observatory (europa.eu)
47.6451504,6.8427685,Avions Mauboussin,30 rue Edouard Branly 90000 Belfort,,,,France,Hydrogen France
41.632963,-4.729462,AVL IBÉRICA S.A.,"Paseo Arco de Ladrillo 68 planta 5, E-47007 Valladolid",,,,Spain,Hydrogen Spain
47.0777018,15.4251443,AVL List GmbH,"Hans-List-Platz 1, 8020, Graz, Austria",Hans-List-Platz 1,8020,Graz,Austria,Hydrogen Austria
60.291186,25.072881,AW-ENERGY OY,"TIKKURILANTIE 10, 01380, Uusimaa, Finnland",TIKKURILANTIE 10,01380,VANTAA,Finland,Amadeus
44.1833634,12.208537,AWETA SISTEMI S.P.A.,"VIA ADRIANO OLIVETTI 79, 47522, Forli-Cesena, Italien",VIA ADRIANO OLIVETTI 79,47522,CESENA,Italy,Amadeus
48.8712949,2.3136468,AXA,"25 Avenue Matignon, Paris, Ile-de-France, 75008",,,,France,Hydrogen France
45.643371,4.827534,AXELERA,"Rond-point de l'Échangeur, Les Levées, 69360 Solaize, France",,,,France,Hydrogen France
48.8791294,2.1660008,Axens,"89, bd Franklin Roosevelt 92508 Rueil-Malmaison – France",,,,France,Hydrogen France
52.4331354,13.5402384,AXIOSUS ENERGY GMBH,"FRANZ-EHRLICH-STR. 12, 12489, Berlin, Deutschland",FRANZ-EHRLICH-STR. 12,12489,BERLIN,Germany,Amadeus
43.500629,5.512977,AXONE,Château de la Saurine – 1985 route de Martina – 13590 MEYREUIL,,,,France,Hydrogen France
47.479396,8.309104,Axpo,"Parkstrasse 23, Baden, 5401, Switzerland",,,,Switzerland,Hydrogen Europe
37.340679,-6.05642,AYESA Ingeniería y Arquitectura,AVDA MARIE CURIE 2 EDIFICIO AYESA 41092 SEVILLA,,,,Spain,Hydrogen Spain
64.5879353,18.6936643,A-Z SYSTEM AB,"MOTIONSVÄGEN 7, 921 37, Västerbotten, Schweden",MOTIONSVÄGEN 7,921 37,LYCKSELE,Sweden,Amadeus
43.865608,5.140628,AZUR DISTILLATION,"387 ROUTE DE CAVAILLON, 84660, Vaucluse, Frankreich",387 ROUTE DE CAVAILLON,84660,MAUBEC,France,Amadeus
49.1818143,11.18493349740861,AZURE ENERGY GMBH,"SIEMENSSTR. 1, 91126, Roth, Deutschland",SIEMENSSTR. 1,91126,REDNITZHEMBACH,Germany,Amadeus
50.701343,3.821559,B.T.G. - BELG. TECHNISCHE GASSEN - G.T.B. - GAZ TECHNIQUE BELGE,"ZONING OUEST 15, 7860, Soignies, Belgien",ZONING OUEST 15,7860,LESSINES,Belgium,Amadeus
50.2107866,8.657675517280001,Bad Homburg,"Ober-Eschbacher Str. 142, 61352, Bad Homburg, Germany",Ober-Eschbacher Str. 142,61352,Bad Homburg,Germany,Hydrogen Refuelling Stations | European Hydrogen Observatory (europa.eu)
49.2124484,9.077172,Bad Rappenau,"Buchäckerring 40, 74906, Bad Rappenau, Germany",Buchäckerring 40,74906,Bad Rappenau,Germany,Hydrogen Refuelling Stations | European Hydrogen Observatory (europa.eu)
47.6122886,7.6545885,BADISCHE RHEINGAS GMBH,"WIESENWEG 4, 79539, Lörrach, Deutschland",WIESENWEG 4,79539,LÖRRACH,Germany,Amadeus
58.1475617,7.9922495,BAHARI CARBON PARTNERS AS,"Henrik Wergelands gate 27, 4612 Kristiansand, Norway",,,,Norway,Amadeus
51.514698,-0.087732,Baker Botts (UK) LLP,"41 Lothbury, London, EC2R 7HF",,,,United Kingdom,Hydrogen UK
43.8030738,11.2295918,Baker Hughes,"Via Felice Matteucci 2, Florence, 50127, Italy",,,,Italy,Hydrogen Europe
50.939921,4.414087,BALCHEM,"WESTVAARTDIJK 85, 1850, Halle-Vilvoorde, Belgien",WESTVAARTDIJK 85,1850,GRIMBERGEN,Belgium,Amadeus
56.654483,9.795555,Ballard Power Systems Europe,"Majsmarken 1, Hobro, 9500, Denmark",,,,Denmark,Hydrogen Europe
59.44425825,24.7622960105534,Baltic Ports Organization,"Sadama 25, Tallinn, 15051, Estonia",,,,Estonia,Hydrogen Europe
40.5317418,-3.6451995,Baltimore Aircoil Int nv,"Carretera de Fuencarral, 44 CAMPUS TRIBECA Edificio 1 Bajo izquierda",,,,Spain,Hydrogen Spain
46.051678,4.072888,Barriquand Heat Exchangers,9-13 rue Saint Claude 42300 Roanne,,,,France,Hydrogen France
52.2705988,-0.899400158044051,BARRY HOWARD LLP,"UNIT 9, BASSET COURT, LOAKE CLOSE, NN4 5EZ, Northampton, Vereinigtes Königreich","UNIT 9, BASSET COURT, LOAKE CLOSE",NN4 5EZ,NORTHAMPTON,United Kingdom,Amadeus
51.9859512,6.288568,BART ROSENDAAL BEHEER B.V.,"KLOOTSEMASTRAAT 26, 7009 CG, Doetinchem, Niederlande",KLOOTSEMASTRAAT 26,7009 CG,DOETINCHEM,Netherlands,Amadeus
41.644146,-0.983254,"BASE SISTEMAS Y SUMINISTROS, S.A.","Plataforma Logística PLAZA, Avenida Diagonal 14, Nave 16, 50197 ZARAGOZA",,,,Spain,Hydrogen Spain
51.3623782,4.277185122562272,BASF DOW HPPO PRODUCTION,"SCHELDELAAN 600, 2040, Antwerp, Belgien",SCHELDELAAN 600,2040,ANTWERPEN,Belgium,Amadeus
51.3342969,3.7903194,BASF DOW HPPO TECHNOLOGY B.V.,"HERBERT H. DOWWEG 5, 4542 NM, Terneuzen, Niederlande",HERBERT H. DOWWEG 5,4542 NM,HOEK,Netherlands,Amadeus
49.4157646,8.3919561,BASF FUEL CELL GMBH,"CARL-BOSCH-STR. 38, 67063, Ludwigshafen am Rhein, Deutschland",CARL-BOSCH-STR. 38,67063,LUDWIGSHAFEN,Germany,Amadeus
49.4811431,8.441509250000005,BASF RENEWABLE ENERGY GMBH,"BENCKISERPLATZ 1, 67059, Ludwigshafen am Rhein, Deutschland",BENCKISERPLATZ 1,67059,LUDWIGSHAFEN,Germany,Amadeus
49.5130209,8.4219463,BASF SE - Public Funding Europe RC/OFP - C006,"Carl-Bosch-Str. 38 / Tor 7, 67063, Ludwigshafen am Rhein, Germany",Carl-Bosch-Str. 38 / Tor 7,67063,Ludwigshafen am Rhein,Germany,Hydrogen Germany
43.3280772600642,-3.10814476450165,Basque Hydrogen Corridor/BH2C - Muskiz refinery (Phase 1),,,,Muskiz,Spain,Hydrogen Production and Consumption Projects | European Hydrogen Observatory (europa.eu)
43.3059769,-3.0397722,BASQUE HYDROGEN SOCIEDAD LIMITADA.,"GRUPO SERANTES, 2 0 - EDIF. ENERGY INTELLIGEN, 48500, Vizcaya, Spanien","GRUPO SERANTES, 2 0 - EDIF. ENERGY INTELLIGEN",48500,ABANTO CIERVANA/ABANTO ZIERBENA,Spain,Amadeus
53.84518025,12.17417529004564,BATAROW SENSORIK GMBH,"GEWERBEGEBIET 4, 18276, Landkreis Rostock, Deutschland",GEWERBEGEBIET 4,18276,LÜSSOW,Germany,Amadeus
51.9298916,4.4059576,Battolyser Systems B.V.,"Conradstraat 4, Schiedam, 3125BC, Netherlands",,,,Netherlands,Hydrogen Europe
49.96278135,11.61078501925254,Bayreuth,"Christian-Ritter-von-Langheinrich 2, 95448, Bayreuth, Germany",Christian-Ritter-von-Langheinrich 2,95448,Bayreuth,Germany,Hydrogen Refuelling Stations | European Hydrogen Observatory (europa.eu)
48.15298195,11.61735940018863,BAYWA POWER LIQUIDS GMBH,"ARABELLASTR. 4, 81925, München, Landeshauptstadt, Deutschland",ARABELLASTR. 4,81925,MÜNCHEN,Germany,Amadeus
40.4280498,-3.6969517,BAYWARE,"C. de Sagasta, 31, planta 4, Chamberí, 28004 Madrid, Spain",,,,Spain,Hydrogen Spain
52.1963587,6.0574666,BBA Pompen en Buizen BV,"Zutphensestraat 242, Apeldoorn, 7325 WV",Zutphensestraat 319,7325 WT,Apeldoorn,Netherlands,Hydrogen Netherlands
48.8864464,2.2976787,BCTG Avocats,14 avenue Gourgaud 75017 Paris,,,,France,Hydrogen France
52.5228747,13.3809023,BDEW,"Reinhardtstr. 32, Berlin, 10117, Germany",,,,Germany,Hydrogen Europe
48.809794,2.1401384,BDO IDF,7 rue du Parc de Clagny  78000 VERSAILLES,,,,France,Hydrogen France
48.8708633,7.677645,BDR Thermea,57 rue de la Gare 67580 Mertzwiller,,,,France,Hydrogen France
52.1956049,5.9814703,BDR Thermea Group BV,"Kanaal Zuid 106, Apeldoorn, 7332, Netherlands",,,,Netherlands,Hydrogen Europe
48.7635082,2.1234302,BE green,55 Rue Tabuteau 78530 Buc,,,,France,Hydrogen France
41.811805,12.614705,BEAUMONT ITALIA S.R.L.,"VIA DELLA STAZIONE DI CIAMPINO 110, 00118, Roma, Italien",VIA DELLA STAZIONE DI CIAMPINO 110,00118,ROMA,Italy,Amadeus
44.023582,1.361629,BECICE,21 rue Armand Saintis 82000 Montauban,,,,France,Hydrogen France
50.8117216,4.3810881,Belgian Energy Research Alliance (BERA),"Avenue Franklin Roosevelt - Franklin Rooseveltlaan 50, Brussels, Belgium",,,,Belgium,Hydrogen Europe Research
46.091891,14.574949,"BELINKA PERKEMIJA KEMIČNA INDUSTRIJA, D.O.O.","ZASAVSKA CESTA 95, 1231, Osrednjeslovenska, Slovenien",ZASAVSKA CESTA 95,1231,LJUBLJANA - ČRNUČE,Slovenia,Amadeus
51.4546211,-2.594364477213476,BELLTOWN POWER UK LIMITED,"SECOND FLOOR HANOVER HOUSE, 47 CORN STREET, BS1 1HT, Bristol, Vereinigtes Königreich","SECOND FLOOR HANOVER HOUSE, 47 CORN STREET",BS1 1HT,BRISTOL,United Kingdom,Amadeus
40.4497288,-3.6678545,Benbros Energy,"C/ GUSTAVO FERNANDEZ BALBUENA, 11 28002 MADRID",,,,Spain,Hydrogen Spain
51.745101,8.717754,Benteler Steel/Tube GmbH & Co. KG,"Residenzstrasse 1, Paderborn, 33104, Germany",,,,Germany,Hydrogen Europe
50.3713996,11.7893964,Berg bei Hof,"Sieggrubenstraße 5, 95180, Berg bei Hof, Germany",Sieggrubenstraße 5,95180,Berg bei Hof,Germany,Hydrogen Refuelling Stations | European Hydrogen Observatory (europa.eu)
51.2677766,7.162915433691597,BERGCHEMIE J. C. BRÖCKING & CO. GMBH,"RUDOLFSTR. 14, 42285, Wuppertal, Deutschland",RUDOLFSTR. 14,42285,WUPPERTAL,Germany,Amadeus
51.4965758,4.2871622,Bergen op Zoom Air Liquide,,,,Bergen op Zoom,Netherlands,Hydrogen Production | European Hydrogen Observatory (europa.eu)
51.4955758,4.2871622,Bergen op Zoom Air Liquide,,,,Bergen op Zoom,Netherlands,Hydrogen Production | European Hydrogen Observatory (europa.eu)
51.4945758,4.2871622,Bergen op Zoom Sabic EuroPetrochemicals,,,,Bergen op Zoom,Netherlands,Hydrogen Production | European Hydrogen Observatory (europa.eu)
48.8934298,2.4129427,BERIM,149 avenue Jean Lolive 93695 Pantin,,,,France,Hydrogen France
47.1684659,8.5158798,BERKSHIRE GRIFFIN CAPITAL AG,"C/O CENTRALIS SWITZERLAND GMBH, BAHNHOFSTRASSE 10, 6300, Zug, Schweiz","C/O CENTRALIS SWITZERLAND GMBH, BAHNHOFSTRASSE 10",6300,ZUG,Switzerland,Amadeus
52.508396,13.260137,Berlin | Heerstraße,"Heerstraße 35-37, 13593, Berlin, Germany",Heerstraße 35-37,13593,Berlin,Germany,Hydrogen Refuelling Stations | European Hydrogen Observatory (europa.eu)
52.5114331,13.4288729,Berlin | Holzmarktstraße,"Holzmarktstraße 36 - 42, 10243, Berlin, Germany",Holzmarktstraße 36 - 42,10243,Berlin,Germany,Hydrogen Refuelling Stations | European Hydrogen Observatory (europa.eu)
52.5716016,13.4296019,Berlin | Rothenbachstraße,"Rothenbachstr. 1, 13089, Berlin, Germany",Rothenbachstr. 1,13089,Berlin,Germany,Hydrogen Refuelling Stations | European Hydrogen Observatory (europa.eu)
52.3709675,13.5281327,Berlin | Schönefeld BER,"Elly-Beinhorn-Ring 2a, 12529, Schönefeld, Germany",Elly-Beinhorn-Ring 2a,12529,Schönefeld,Germany,Hydrogen Refuelling Stations | European Hydrogen Observatory (europa.eu)
52.450414,13.4344896,Berlin | Tempelhofer Weg,"Tempelhofer Weg 102, 12347, Berlin, Germany",Tempelhofer Weg 102,12347,Berlin,Germany,Hydrogen Refuelling Stations | European Hydrogen Observatory (europa.eu)
46.9510352,7.393156144812277,Bern Bethlehem,"Eymattstrasse 15, 3027, Bern, Switzerland",Eymattstrasse 15,3027,Bern,Switzerland,Hydrogen Refuelling Stations | European Hydrogen Observatory (europa.eu)
47.2778494,11.50255151087302,BERNARD Gruppe Holding ZT GmbH,"Bahnhofstraße 19, 6060, Hall in Tirol, Austria",Bahnhofstraße 19,6060,Hall in Tirol,Austria,Hydrogen Austria
43.4757729,5.167309,Berre l’Etang LyondellBasell,,,,Berre l’Etang,France,Hydrogen Production | European Hydrogen Observatory (europa.eu)
55.8514856,14.2184076,BEVAN NORDGREN CONSULTING AB,"C/O IDA NORDGREN, SNÄCKVÄGEN 25, 414 75, Västra Götaland, Schweden","C/O IDA NORDGREN, SNÄCKVÄGEN 25",414 75,GÖTEBORG,Sweden,Amadeus
46.5169177,6.5612517,BEYOND SCROLL SA,"BÂTIMENT C, EPFL INNOVATION PARK, 1015, Vaud, Schweiz","BÂTIMENT C, EPFL INNOVATION PARK",1015,LAUSANNE,Switzerland,Amadeus
50.3235452,11.23678859351093,BFL HYDROGEN OHG,"MARK 1 G, 96524, Sonneberg, Deutschland",MARK 1 G,96524,FÖRITZTAL,Germany,Amadeus
47.451456,15.335707,BHDT GmbH,"Werk-VI-Strasse 52, 8605, Kapfenberg, Austria",Werk-VI-Strasse 52,8605,Kapfenberg,Austria,Hydrogen Austria
49.5284142,8.396864696003135,BHYO GMBH,"OSTRING 128, 67069, Ludwigshafen am Rhein, Deutschland",OSTRING 128,67069,LUDWIGSHAFEN,Germany,Amadeus
53.0758196,8.8071646,BIAS - Bremer Institut für angewandte Strahltechnik GmbH,"Klagenfurter Str. 5, 28359, Bremen, Germany",Klagenfurter Str. 5,28359,Bremen,Germany,Hydrogen Germany
49.7668052,10.0756538,Biebelried,"Würzburger Str.  55, 97318, Biebelried, Germany",Würzburger Str.  55,97318,Biebelried,Germany,Hydrogen Refuelling Stations | European Hydrogen Observatory (europa.eu)
56.4999314,21.0089049,Biedrība ”Zaļo un Viedo Tehnoloģiju Klasteris”,"Liepāja, Strautu iela 4, Liepāja, LV-3401, Latvia",,,,Latvia,Hydrogen Europe
59.0347198065152,-2.88815455849537,BIG HIT,,,,"Balfour, Shapinsay",United Kingdom,Hydrogen Production | European Hydrogen Observatory (europa.eu)
48.9535103,11.3983259,BIH (LEVENSEAT) LIMITED,"C/O EVERO ENERGY GROUP LIMITED, AUSTIN FRIARS, EC2N 2QQ, London EC2N, Vereinigtes Königreich","C/O EVERO ENERGY GROUP LIMITED, AUSTIN FRIARS",EC2N 2QQ,LONDON,United Kingdom,Amadeus
49.47009815,8.4848813,Bilfinger,"Oskar-Meixner-Straße 1, Mannheim, 68163, Germany",,,,Germany,Hydrogen Europe
43.3372933,-3.0457312,"BILOGISTIK, S.A.","Avenida Iparragirre ( ADIF), 58 - PISO 1, SANTURTZI, BIZKAIAterminal Ferroviaria",,,,Spain,Hydrogen Spain
52.1512532,7.4637262,BIOENERGIE AHLINTEL GMBH & CO. KG,"AHLINTEL 26, 48282, Steinfurt, Deutschland",AHLINTEL 26,48282,EMSDETTEN,Germany,Amadeus
43.482644,-0.749815,BIOENERGIE DU SUD-OUEST,"ROCADE SUD D ARANCE, 64300, Pyrénées-Atlantiques, Frankreich",ROCADE SUD D ARANCE,64300,MONT,France,Amadeus
53.672991,14.078847,BIOGAS DUCHEROW GMBH,"KARL-MARX-STR. 23, 17398, Dahme-Spreewald, Deutschland",KARL-MARX-STR. 23,17398,DUCHEROW,Germany,Amadeus
53.22938,13.694863,BIOGASANLAGE HAßLEBEN GMBH,"STRAßE DER DSF, 17268, Uckermark, Deutschland",STRAßE DER DSF,17268,BOITZENBURGER LAND,Germany,Amadeus
51.9507833,7.6403024,BIOGEEN GMBH,"AM MITTELHAFEN 10, 48155, Münster, Deutschland",AM MITTELHAFEN 10,48155,MÜNSTER,Germany,Amadeus
47.375298,8.544703,BIOGEM EXPRESS AG,"ZÄHRINGERSTRASSE 26, 8001, Zürich, Schweiz",ZÄHRINGERSTRASSE 26,8001,ZÜRICH,Switzerland,Amadeus
45.196971,5.747964,BIOGNV,"1 B BOULEVARD DE LA CHANTOURNE, 38700, Isère, Frankreich",1 B BOULEVARD DE LA CHANTOURNE,38700,LA TRONCHE,France,Amadeus
43.667161,7.216494,BIOGNV DE PERPIGNAN,"CHEZ WORKING SPACE FACTORY IMMEUBLE AR, 455 PROMENADE DES ANGLAIS, 06200, Alpes-Maritimes, Frankreich","CHEZ WORKING SPACE FACTORY IMMEUBLE AR, 455 PROMENADE DES ANGLAIS",06200,NICE,France,Amadeus
43.573241,3.861394,BIOGNV DU PAYS DE L OR,"ESPACE GAROSUD, 48 RUE CLAUDE BALBASTRE, 34070, Hérault, Frankreich","ESPACE GAROSUD, 48 RUE CLAUDE BALBASTRE",34070,MONTPELLIER,France,Amadeus
43.66730725,7.213954957645832,BIOGNV DU PISCENOIS,"RES ARENICE WORKING SPACE FACTORY, 455 PROMENADE DES ANGLAIS, 06200, Alpes-Maritimes, Frankreich","RES ARENICE WORKING SPACE FACTORY, 455 PROMENADE DES ANGLAIS",06200,NICE,France,Amadeus
48.232188,14.49256,BIOMONTAN PRODUKTIONS UND HANDELS GMBH,"REGENSBURGER STRAßE 5, 4470, Oberösterreich, Österreich",REGENSBURGER STRAßE 5,4470,ENNS,Austria,Amadeus
48.21134,16.371692,BIONIC-TEC AG,"WIPPLINGERSTRAßE, 1010, Wien, Österreich",WIPPLINGERSTRAßE,1010,WIEN,Austria,Amadeus
48.696799,21.245341,Bioway,"Pri pracharni 20, Kosice, 4011, Slovakia",,,,Slovakia,Hydrogen Europe
59.923912,10.745069,BIRCAN HOLDING AS,"LEILIGHET 602 FREDRIKKE QVAMS GATE 3A, 0172, Oslo, Norwegen",LEILIGHET 602 FREDRIKKE QVAMS GATE 3A,0172,OSLO,Norway,Amadeus
52.46292165,-1.838368600000003,Birmingham,"Tyseley Energy Park, Hay Mills, B25 8DW, Birmingham, United Kingdom","Tyseley Energy Park, Hay Mills",B25 8DW,Birmingham,United Kingdom,Hydrogen Refuelling Stations | European Hydrogen Observatory (europa.eu)
52.4613575909314,-1.84096426182476,Birmingham Tyseley Energy Park HRS,,,,Birmingham,United Kingdom,Hydrogen Production | European Hydrogen Observatory (europa.eu)
51.84436345,7.825024451989256,BISPLINGHOFF AG,"WESTSTR. 7, 48324, Warendorf, Deutschland",WESTSTR. 7,48324,SENDENHORST,Germany,Amadeus
51.7010422,8.7637534,BITVISOR HOLDING GMBH,"TECHNOLOGIEPARK 12, 33100, Paderborn, Deutschland",TECHNOLOGIEPARK 12,33100,PADERBORN,Germany,Amadeus
42.22509635,-8.736668469562304,BJ ATLANTHY SOCIEDAD LIMITADA.,"Rúa da Coruña, 25, Coia, 36208 Vigo, Pontevedra, Spain",,,,Spain,Amadeus
51.7878105,14.3531844,BKO ENERGY TRADING GMBH,"SASPOWER HAUPTSTR. 11, 03044, Cottbus, Deutschland",SASPOWER HAUPTSTR. 11,03044,COTTBUS,Germany,Amadeus
50.78505,18.96224,Blachownia Solveco SA,,,,Blachownia,Poland,Hydrogen Production | European Hydrogen Observatory (europa.eu)
52.0483775,4.4073495,BLUE FORCE ENERGY B.V.,"KOPERSLAGER 18, 2631 RK, Pijnacker-Nootdorp, Niederlande",KOPERSLAGER 18,2631 RK,NOOTDORP,Netherlands,Amadeus
40.633575,0.289924,"BLUE SKY CLEAN ENERGY, SOCIEDAD LIMITADA.","AVENIDA DE LA GENERALITAT, 102, 43500, Tarragona, Spanien","AVENIDA DE LA GENERALITAT, 102",43500,TORTOSA,Spain,Amadeus
48.8883958,2.1708301,Blue Spirit Aero,11 rue Amédée Bollée 92500 Rueil-Malmaison,,,,France,Hydrogen France
51.5726925,7.1487562,BLUE TOWER GMBH,"DONCASTER-PLATZ 5, 45699, Recklinghausen, Deutschland",DONCASTER-PLATZ 5,45699,HERTEN,Germany,Amadeus
55.991674,12.501687,Blue World Technologies,"Egeskovvej 6C, Kvistgaard, 3490, Denmark",,,,Denmark,Hydrogen Europe
44.4253117,8.8866675,BluEnergy Revolution Società Cooperativa,"Via Greto di Cornigliano 6, Genova, 16152, Italy",,,,Italy,Hydrogen Europe
48.8705336,2.34565,Blunomy Advisory,"17-21 Rue Saint-Fiacre, 75002 Paris, France",,,,France,Hydrogen France
52.1658508,13.56143581636576,BMR METALL- UND KABELRECYCLING GMBH,"IN DER MUNA 12, 15749, Dahme-Spreewald, Deutschland",IN DER MUNA 12,15749,MITTENWALDE,Germany,Amadeus
48.1769098,11.5601299334586,BMW,"Petuelring 130, München, 80788, Germany",,,,Germany,Hydrogen Europe
47.971636,12.960611,BO RAMBERG CONSULTING AB,"C/O BO RAMBERG, AXEL ENGDAHLSV 3, 435 42, Västra Götaland, Schweden","C/O BO RAMBERG, AXEL ENGDAHLSV 3",435 42,MÖLNLYCKE,Sweden,Amadeus
53.3408515,-6.2572229,BOC GASES IRELAND HOLDINGS LIMITED,"John F Kennedy Dr, Bluebell, Dublin, Ireland",,,,Ireland,Amadeus
51.31803175,-0.5621470081842368,BOC HELEX,"FORGE, 43 CHURCH STREET WEST, GU21 6HT, Woking, Vereinigtes Königreich","FORGE, 43 CHURCH STREET WEST",GU21 6HT,WOKING,United Kingdom,Amadeus
49.9684577,20.4303286,Bochnia Stalprodukt,,,,Bochnia,Poland,Hydrogen Production | European Hydrogen Observatory (europa.eu)
63.494276,23.007776,BODENS VÄTGAS FASTIGHETS AB,"C/O BODENS ENERGI AB, SLIPVÄGEN 7, 961 38, Norrbotten, Schweden","C/O BODENS ENERGI AB, SLIPVÄGEN 7",961 38,BODEN,Sweden,Amadeus
45.422386,11.788351,BOLDRIN - S.R.L.,"VIA PITAGORA 27, 35030, Padova, Italien",VIA PITAGORA 27,35030,RUBANO,Italy,Amadeus
49.8738515,9.1688433,Boll Automation GmbH,"Industriestr. 6, 63839, Kleinwallstadt, Germany",Industriestr. 6,63839,Kleinwallstadt,Germany,Hydrogen Germany
46.4739791,11.3177728,Bolzano,"Via Enrico Mattei 1, 39100, Bolzano, Italy",Via Enrico Mattei 1,39100,Bolzano,Italy,Hydrogen Refuelling Stations | European Hydrogen Observatory (europa.eu)
46.4740985384316,11.3171937080776,Bolzano HRS (CHIC),,,,Bolzano,Italy,Hydrogen Production | European Hydrogen Observatory (europa.eu)
48.8346536,2.289455,BONACIEUX ENERGIES,"24 RUE AUGUSTE CHABRIERES, 75015, Paris, Frankreich",24 RUE AUGUSTE CHABRIERES,75015,PARIS,France,Amadeus
43.295227,-4.195129,BONDALTI CANTABRIA SA.,"AVENIDA ALBERTO I (DE BELGICA), S/N, 39300, Cantabria, Spanien","AVENIDA ALBERTO I (DE BELGICA), S/N",39300,TORRELAVEGA,Spain,Amadeus
50.091793,14.451471,"BONETT GAS INVESTMENT, A.S.","KŘIŽÍKOVA 237/36A, 18600, Obvod Praha 8, Tschechische Republik",KŘIŽÍKOVA 237/36A,18600,PRAHA 8,Czech Republic,Amadeus
50.7270589,7.0679735,Bonn,"Hermann-Wandersleb-Ring, 53121, Bonn, Germany",Hermann-Wandersleb-Ring,53121,Bonn,Germany,Hydrogen Refuelling Stations | European Hydrogen Observatory (europa.eu)
43.309929,3.497309,BORDERES-SANCHIS,"17 RUE DU PERE JEAN BAPTISTE SALLES, 34300, Hérault, Frankreich",17 RUE DU PERE JEAN BAPTISTE SALLES,34300,AGDE,France,Amadeus
48.8818615,2.3304162,Borea,16 rue ballu 75009 Paris,,,,France,Hydrogen France
50.987177,5.238681,Bosal Energy NV,"Dellestraat 20, Lummen, 3560, Belgium",,,,Belgium,Hydrogen Europe
40.4277341,-3.6143633,Bosch España,"C. de los Hermanos García Noblejas, 19, San Blas-Canillejas, 28037 Madrid, Spain",,,,Spain,Hydrogen Spain
48.910935,2.34403,BOSCH France,32 avenue Michelet 93400 Saint Ouen sur Seine,,,,France,Hydrogen France
48.817607,9.1660639,Bosch Germany,"Wernerstraße 51, 70469 Stuttgart, Germany",,,,Germany,Hydrogen UK
51.4806846,-0.1111974,BOSS Energy Consulting,"101 Lincoln House, Kennington Park, 1 Brixton Road, Oval, London, SW9 6DE, United Kingdom",,,,United Kingdom,Hydrogen Europe
52.828321,-2.1167175,BOSTIK ADHESIVES LIMITED,"Common Rd, Stafford ST16 3EH, United Kingdom",,,,United Kingdom,Amadeus
52.9706777,-0.0149694,Boston College of Further Education,"Skirbeck Road, Boston, Lincolnshire, PE21 6AF",,,,United Kingdom,Hydrogen UK
51.8907247,4.2931302,Botlek-Rotterdam Air Liquide,,,,Botlek,Netherlands,Hydrogen Production | European Hydrogen Observatory (europa.eu)
51.8897247,4.2931302,Botlek-Rotterdam Air Liquide,,,,Botlek,Netherlands,Hydrogen Production | European Hydrogen Observatory (europa.eu)
51.8887247,4.2931302,Botlek-Rotterdam Air Liquide,,,,Botlek,Netherlands,Hydrogen Production | European Hydrogen Observatory (europa.eu)
51.8857247,4.2931302,Botlek-Rotterdam Air Products,,,,Botlek,Netherlands,Hydrogen Production | European Hydrogen Observatory (europa.eu)
51.8847247,4.2931302,Botlek-Rotterdam ExxonMobil Chemical,,,,Botlek,Netherlands,Hydrogen Production | European Hydrogen Observatory (europa.eu)
51.8817247,4.2931302,Botlek-Rotterdam Nobian,,,,Botlek,Netherlands,Hydrogen Production | European Hydrogen Observatory (europa.eu)
59.3161361,18.1625357,BOTNIA HYDROGEN AB,"Cylindervägen 18, 131 52 Nacka Strand, Sweden",,,,Sweden,Amadeus
50.91087405,-1.386119393769968,Bowman Power,"Ocean Quay, Belvidere Rd, Southampton SO14 5QY, United Kingdom",,,,United Kingdom,Hydrogen UK
57.14382495,-2.12802321014168,BP ABERDEEN HYDROGEN ENERGY LIMITED,"C/O JOHNSTON CARMICHAEL, BISHOP'S COURT, AB10 1YL, Aberdeen, Vereinigtes Königreich","C/O JOHNSTON CARMICHAEL, BISHOP'S COURT",AB10 1YL,ABERDEEN,United Kingdom,Amadeus
50.8428218,4.3843081,BP Belgium,"Rond-Point Robert Schuman 11, Brussels, 1040, Belgium",,,,Belgium,Hydrogen Europe
40.497024,-3.671645,bp Energía España,"C. de Quintanadueñas, 6, 2°, Fuencarral-El Pardo, 28050 Madrid, Spain",,,,Spain,Hydrogen Spain
52.560336,7.295051,BP LINGEN GREEN HYDROGEN VERWALTUNG GMBH,"Raffineriestraße 1, 49808 Lingen (Ems), Germany",,,,Germany,Amadeus
51.9395733,4.1036219,BP Rotterdam,"D'ARCYWEG 76, 3198 NA, Rotterdam, Niederlande",D'ARCYWEG 76,3198 NA,EUROPOORT ROTTERDAM,Netherlands,Amadeus
51.320979,-0.555361,BP UK,"BP International Limited, Chertsey Road, Sunbury on Thames, Middlesex, TW16 7BP",,,,United Kingdom,Hydrogen UK
56.161911,10.07641,Brabrand,"Logistikparken 12, 8220, Brabrand, Denmark",Logistikparken 12,8220,Brabrand,Denmark,Hydrogen Refuelling Stations | European Hydrogen Observatory (europa.eu)
52.4982473,13.3096572,BRAINFLEET HYDROGEN SOLUTIONS GMBH,"DUISBURGER STR. 6, 10707, Berlin, Deutschland",DUISBURGER STR. 6,10707,BERLIN,Germany,Amadeus
49.5782248,10.8799222,BRAINPOWER ENERGY GMBH,"GUSTAV-HERTZ-STR. 9, 91074, Bayern, Deutschland",GUSTAV-HERTZ-STR. 9,91074,HERZOGENAURACH,Germany,Amadeus
51.1073801,-0.1920473,Bramble Energy,"Atrium Court, Tilgate Business Park, Brighton Rd, Crawley RH11 9BP, United Kingdom",,,,United Kingdom,Hydrogen Europe
51.767742,14.327487,Brandenburg University of Technology,Platz der Deutschen Einheit 1 03046 Cottbus,,,,Germany,Hydrogen Europe Research
51.6962223,9.4031911,Brandenburgische Technische Universität Cottbus-Senftenberg - Fachgebiet Energiewirtschaft,"Siemens-Halske-Ring 13, 3046, Cottbus, Germany",Siemens-Halske-Ring 13,3046,Cottbus,Germany,Hydrogen Germany
52.2883767,10.520398,Braunschweig,"Hamburger Str. 211, 38112, Braunschweig, Germany",Hamburger Str. 211,38112,Braunschweig,Germany,Hydrogen Refuelling Stations | European Hydrogen Observatory (europa.eu)
51.5834537,4.8256201,Breda,"Minervum 7001, 4817, Breda, Netherlands",Minervum 7001,4817,Breda,Netherlands,Hydrogen Refuelling Stations | European Hydrogen Observatory (europa.eu)
52.1975671,6.0539586,Bredenoord Exploitatie mij,"Zutphensestraat 319, Apeldoorn, 7325 WT",Lunet 10c,3905 NW,Veenendaal,Netherlands,Hydrogen Netherlands
47.534213,15.503138,Breitenfeld Edelstahl AG,"Breitenfeldstraße 22, 8662, St. Barbara, Austria",Breitenfeldstraße 22,8662,St. Barbara,Austria,Hydrogen Austria
61.8445899,4.9774489,"Bremanger Elkem ASA, Silicon Division",,,,Bremanger,Norway,Hydrogen Production | European Hydrogen Observatory (europa.eu)
53.0577756,8.962379,Bremen | Osterholzer Heerstraße,"Osterholzer Heerstraße 222, 28325, Bremen, Germany",Osterholzer Heerstraße 222,28325,Bremen,Germany,Hydrogen Refuelling Stations | European Hydrogen Observatory (europa.eu)
53.13881485,8.711613859905562,BREMER WASSERSTOFF GMBH,"AUF DEN DELBEN 35, 28237, Bremen, Deutschland",AUF DEN DELBEN 35,28237,BREMEN,Germany,Amadeus
51.410381,5.4286966,BRENERGIE B.V.,"DE RUN 4219, 5503 LM, Veldhoven, Niederlande",DE RUN 4219,5503 LM,VELDHOVEN,Netherlands,Amadeus
45.5425526,10.2118019,Brescia Industrie Chimiche Caffaro,,,,Brescia,Italy,Hydrogen Production | European Hydrogen Observatory (europa.eu)
47.498378,1.440557,Bretagne Développement Innovation,1BIS ROUTE DE FOUGÈRES,,,,France,Hydrogen France
47.8295909,1.9377847,BRGM – French Geological Survey,"3, Avenue Claude Guillemin, Orleans, 45060 France",,,,France,Hydrogen Europe Research
52.67679915,-2.019173099064588,Briggs Equipment UK Ltd,"7 Orbital Way, Cannock, Staffordshire WS11 8XW",,,,United Kingdom,Hydrogen UK
50.9855769,5.7885588,BRIGH2 B.V.,"URMONDERBAAN 22, 6167 RD, Sittard-Geleen, Niederlande",URMONDERBAAN 22,6167 RD,GELEEN,Netherlands,Amadeus
55.9436992,-3.0984078,BRIGHT GREEN HYDROGEN LTD,"MOULSDALE HOUSE, 24D MILTON ROAD EAST, EH15 2PP, Edinburgh, Vereinigtes Königreich","MOULSDALE HOUSE, 24D MILTON ROAD EAST",EH15 2PP,EDINBURGH,United Kingdom,Amadeus
40.6327278,17.9417616,Brindisi Versalis,,,,Brindisi,Italy,Hydrogen Production | European Hydrogen Observatory (europa.eu)
55.675353,12.567442,Brintbranchen,"Vesterbrogade 1C, København V, 1620, Denmark",,,,Denmark,Hydrogen Europe
51.4874424,-0.3129875,BRITANNIA LIFT SERVICES (U.K.) LIMITED,"10TH FLOOR VANTAGE, GREAT WEST ROAD, TW8 9AG, Brentford, Vereinigtes Königreich","10TH FLOOR VANTAGE, GREAT WEST ROAD",TW8 9AG,BRENTFORD,United Kingdom,Amadeus
51.186863,-2.528833,British Solar Renewables,"35 and 35a, The Maltings, Lower Charlton Trading Estate, Shepton Mallet BA4 5QE, United Kingdom",,,,United Kingdom,Hydrogen UK
52.044077,5.5688127,Bronkhorst Nederland BV,"Lunet 10c, Veenendaal, 3905 NW",Postbus 525,7300 AM,Apeldoorn,Netherlands,Hydrogen Netherlands
51.5326092,-0.4740498907267292,Brunel University London,"Brunel University London, Uxbridge, UB8 3PH, United Kingdom",,,,United Kingdom,Hydrogen Europe Research
53.907895,9.23835,Brunsbüttel,"Holstendamm, 25572, Brunsbüttel, Germany",Holstendamm,25572,Brunsbüttel,Germany,Hydrogen Refuelling Stations | European Hydrogen Observatory (europa.eu)
51.9063606,4.5441931,BRUSH HMA B.V.,"SCHAARDIJK 372 5TH FLOOR, B, 2909 LA, Capelle Aan Den Ijssel, Niederlande","SCHAARDIJK 372 5TH FLOOR, B",2909 LA,CAPELLE AAN DEN IJSSEL,Netherlands,Amadeus
51.2728265,16.708557,Brzeg Dolny Zaklady Chemiczne/PCC Rokita,,,,Brzeg Dolny,Poland,Hydrogen Production | European Hydrogen Observatory (europa.eu)
51.5244652,-0.141496,BUBNEY ENERGY CENTRE LIMITED,"6TH FLOOR 338 EUSTON ROAD, NW1 3BG, London NW1, Vereinigtes Königreich",6TH FLOOR 338 EUSTON ROAD,NW1 3BG,LONDON,United Kingdom,Amadeus
59.919774,10.729756,BUHEII VINDKRAFT AS,"WERGELANDSVEIEN 23B, 0167, Oslo, Norwegen",WERGELANDSVEIEN 23B,0167,OSLO,Norway,Amadeus
47.8934703494515,20.7024755026607,BÜKKABRÁNY PtG,,,,Bükkábrányi,Hungary,Hydrogen Production and Consumption Projects | European Hydrogen Observatory (europa.eu)
43.561393,3.794054,BULANE,"Ecoparc, 79 rue Mézière Christin 34690 FABREGUES",,,,France,Hydrogen France
42.694624,23.332307,Bulgarian Academy of Science (BAS),"Sofia Center, ul. ""15-ti noemvri"" 1, 1000 Sofia, Bulgaria",,,,Bulgaria,Hydrogen Europe Research
42.69459015,23.33199374482266,Bulgarian Hydrogen Institute,"Sofia Center, ul. ""15-ti noemvri"" 1, 1000 Sofia, Bulgaria",,,,Bulgaria,Hydrogen Europe
52.44143925,13.28644380146684,Bundesanstalt für Materialforschung und prüfung (BAM),"Unter den Eichen 87, 12205 Berlin, Berlin Germany",,,,Germany,Hydrogen Europe Research
52.4330402,13.2947951,Bundesanstalt für Materialforschung und -prüfung (BAM),"Unter den Eichen 87, 12205, Berlin, Germany",Unter den Eichen 87,12205,Berlin,Germany,Hydrogen Germany
47.50280735,8.760614644240771,Burckhardt Compression AG,"Franz-Burckhardt-Strasse 5, Winterthur, 8404, Switzerland",,,,Switzerland,Hydrogen Europe
49.055523,2.034128,Burckhardt Compression France,21/23 rue du Petit Albi 95800 Cergy,,,,France,Hydrogen France
40.53084235,-3.654552049277536,BUREAU VERITAS,"Calle Valportillo Primera, 22-24, Edificio Caoba, Pol. Ind. La Granja, 28108 Alcobendas, Madrid",,,,Spain,Hydrogen Spain
48.894244,2.236518,Bureau Veritas Exploitation,"Le triangle de l'Arche, 8 cours du triangle 92937 La Défense Cedex",,,,France,Hydrogen France
48.889323,2.2513,Bureau Veritas Marine & offshore,"Tour Alto, 4 place des saisons, Courbevoie, 92400, France",,,,France,Hydrogen Europe
47.8837229,12.6006845,BÜRGERSOLARPARK BUNDORF GMBH & CO. KG,"SCHMIDHAMER STR. 22, 83278, Traunstein, Deutschland",SCHMIDHAMER STR. 22,83278,TRAUNSTEIN,Germany,Amadeus
51.5143313,-0.1070707883636364,Burges Salmon,"One Glass Wharf, Bristol, BS2 0ZX Atria One, 144 Morrison Street, Edinburgh, EH3 8EX 6 New Street Square, London, EC4A 3BF",,,,United Kingdom,Hydrogen UK
41.363711,2.058065,Burkert Ibérica S.A.U.,"Avda. Barcelona 40A, 08970 Sant Joan Despí",,,,Spain,Hydrogen Spain
40.477606,-3.730444,BUROTEC CONSULTORÍA TÉCNICA S.L.,AVENIDA CARDENAL HERRERA ORIA 326 A-B MADRID 28035,,,,Spain,Hydrogen Spain
44.5692431,8.9461497,Busalla Iplom Spa,,,,Busalla,Italy,Hydrogen Production | European Hydrogen Observatory (europa.eu)
52.1707229,8.8043157,Buschjost GmbH,"Detmolder Str. 256, Bad Oeynhausen, 32545, Germany",,,,Germany,Hydrogen Europe
48.486444,2.776124,BUSELEC,"9 RUE DE FERICY, 77590, Seine-et-Marne, Frankreich",9 RUE DE FERICY,77590,FONTAINE LE PORT,France,Amadeus
42.2145849,13.8253915,Bussi sul Tirino Ausimont SpA,,,,Bussi sul Tirino,Italy,Hydrogen Production | European Hydrogen Observatory (europa.eu)
45.2604483,9.4979448,C.I.M. CARDIFICIO ITALIANO S.P.A.,"VIA GIOVANNI PAOLO II 49, 26010, Cremona, Italien",VIA GIOVANNI PAOLO II 49,26010,VAIANO CREMASCO,Italy,Amadeus
52.1353889,4.3881452,C.W. BUSSER PENSIOEN B.V.,"ADMIRAAL HELFRICHLAAN 3, 2243 AG, Wassenaar, Niederlande",ADMIRAAL HELFRICHLAAN 3,2243 AG,WASSENAAR,Netherlands,Amadeus
38.997114,-1.852873,"CADE SOLUCIONES DE INGENIERÍA, S.L.","Parque Científico y Tecnológico, Paseo de la Innovación, 3, 02006 Albacete",,,,Spain,Hydrogen Spain
49.175285,-0.433907,Caen | Bretteville-sur-Odon,"Rue Jules Vedrines, 14760, Bretteville sur Odon, France",Rue Jules Vedrines,14760,Bretteville sur Odon,France,Hydrogen Refuelling Stations | European Hydrogen Observatory (europa.eu)
41.094082,-8.549817,CaetanoBus,"Av. Vasco da Gama, Vila Nova de Gaia, 4431-901, Portugal",,,,Portugal,Hydrogen Europe
48.83716,2.370488,Caisse des Dépôts,"72, avenue Pierre Mendès France 75914 PARIS CEDEX 13",,,,France,Hydrogen France
41.3868431,2.1747496,CAMPA IBERIA SOCIEDAD ANONIMA,"CALLE VIA LAIETANA, 47 P. 3 PTA. 1, 08003, Barcelona, Spanien","CALLE VIA LAIETANA, 47 P. 3 PTA. 1",08003,BARCELONA,Spain,Amadeus
41.803712,13.224338,CAMPIONI LOGISTICA INTEGRATA S.P.A.,"VIA FERRUCCIA 14, 03010, Frosinone, Italien",VIA FERRUCCIA 14,03010,PATRICA,Italy,Amadeus
41.4414924,14.5072722,Campochiaro Fater,,,,Campochiaro,Italy,Hydrogen Production | European Hydrogen Observatory (europa.eu)
28.117971,-15.493484,"CANALUZ INFINITA, SOCIEDAD LIMITADA.","CALLE PORTUGAL, 14 4 A, 35010, Las Palmas, Spanien","CALLE PORTUGAL, 14 4 A",35010,LAS PALMAS DE GRAN CANARIA,Spain,Amadeus
50.7750379,-1.9388482,CANFORD RENEWABLE ENERGY LIMITED,"ENERGY SITE CONTROL CENTRE, CANFORD RECYCLING CENTRE, ARENA WAY, BH21 3BW, Wimborne, Vereinigtes Königreich","ENERGY SITE CONTROL CENTRE, CANFORD RECYCLING CENTRE, ARENA WAY",BH21 3BW,WIMBORNE,United Kingdom,Amadeus
43.551394,6.960852,CANNES LERINS HYDROGENE,"SITE CREACANNES LERINS LA BOCCA, 11 AVENUE MAURICE CHEVALIER, 06150, Alpes-Maritimes, Frankreich","SITE CREACANNES LERINS LA BOCCA, 11 AVENUE MAURICE CHEVALIER",06150,CANNES,France,Amadeus
43.551198,7.011657,Cannes Pays de Lérins,Hôtel de Ville  Place Bernard Cornut Gentille 06414 Cannes Cedex,,,,France,Hydrogen France
51.8492794,4.9834702,CAPARIZ B.V.,"PAPLAND 18, 4206 CL, Gorinchem, Niederlande",PAPLAND 18,4206 CL,GORINCHEM,Netherlands,Amadeus
43.516302,5.501305,Capenergies,"Bât. Henri Poincaré Domaine Petit Arbois, Avenue Louis Philibert - CS 30658 13547 AIX EN PROVENCE CEDEX",,,,France,Hydrogen France
40.420088,-3.807223,CAPITAL ENERGY,"P.º Club Deportivo, 1, Edificio 13, 28223 Pozuelo de Alarcón, Madrid, Spain",,,,Chile,Hydrogen Spain
40.418934,-3.801181,CAPITAL ENERGY ENGINEERING SL.,"PASEO DEL CLUB DEPORTIVO (EDIF. 13), 1, 28223, Madrid, Spanien","PASEO DEL CLUB DEPORTIVO (EDIF. 13), 1",28223,POZUELO DE ALARCON,Spain,Amadeus
45.732974,4.8787199,CARA,"1, boulevard Edmond Michelet, Lyon, 69008, France",,,,France,Hydrogen Europe
46.9327921,7.5105701,CARBAGAS AG,"HOFGUT, 3073, Bern, Schweiz",HOFGUT,3073,GÜMLIGEN,Switzerland,Amadeus
51.450661,7.238199,CARBON BRENNSTOFFHANDELS- UND TRANSPORTGESELLSCHAFT MBH,"STIEPELER STR. 68 H, 44799, Bochum, Deutschland",STIEPELER STR. 68 H,44799,BOCHUM,Germany,Amadeus
46.5192227,6.4985468,CARBON CLEAN ENERGY SA,"CH. DE LA GROSSE-PIERRE 7, 1110, Vaud, Schweiz",CH. DE LA GROSSE-PIERRE 7,1110,MORGES,Switzerland,Amadeus
51.4914175773825,6.72396950620628,Carbon2Chem,,,,Duisburg,Germany,Hydrogen Production | European Hydrogen Observatory (europa.eu)
51.46257105,7.03642779999999,CARBOTECH AC GMBH,"ELISENSTR. 119, 45139, Essen, Deutschland",ELISENSTR. 119,45139,ESSEN,Germany,Amadeus
37.515761,-4.661494,CARBURANTES MONTALBAN SL.,"CARRETERA MONTALBAN (KM 1400), 14540, Córdoba, Spanien",CARRETERA MONTALBAN (KM 1400),14540,LA RAMBLA,Spain,Amadeus
41.3540228,2.0813001,"CARBUROS METÁLICOS, S.A.","Av. de la Fama, 1, 08940 Cornellà de Llobregat (Barcelona)",,,,Spain,Hydrogen Spain
51.272523,7.206675,CARDEX AUTOTEILE UND ZUBEHÖR GMBH,"HÖHNE, 42275, Wuppertal, Deutschland",HÖHNE,42275,WUPPERTAL,Germany,Amadeus
37.959375,23.707974,CARELL S.A,"Industrial Park of Schisto 805-806, Perama, 18863, Greece",,,,Greece,Hydrogen Europe
53.606164,10.01931,CARNEADES HYDROGEN GMBH,"ÜBERSEERING, 22297, Hamburg, Freie und Hansestadt, Deutschland",ÜBERSEERING,22297,HAMBURG,Germany,Amadeus
40.397706,-3.684414,CARTAGENA HYDROGEN NETWORK SL.,"CALLE MENDEZ ALVARO, 44, 28045, Madrid, Spanien","CALLE MENDEZ ALVARO, 44",28045,MADRID,Spain,Amadeus
37.6156944,-0.9892242,Cartagena Linde,,,,Cartagena,Spain,Hydrogen Production | European Hydrogen Observatory (europa.eu)
37.6166944,-0.9892242,Cartagena Repsol,,,,Cartagena,Spain,Hydrogen Production | European Hydrogen Observatory (europa.eu)
41519061.0,-4717164.0,CARTIF Foundation,"Av. Francisco Vallés, 4, 47151 Boecillo, Valladolid, Spain",,,,Spain,Hydrogen Europe Research
39.9855905,-0.0496388,Castellon de la Plana BP,,,,Castellon de la Plana,Spain,Hydrogen Production | European Hydrogen Observatory (europa.eu)
54.6063,-5.909308,Catagen,"Channel Commercial Park, Unit 5 Elmbank, Queens Rd, Belfast BT3 9DT, United Kingdom",,,,Kingdom,Hydrogen UK
41.3975988,2.1576571,Catalan Agency for Business Competitiveness (ACCIÓ),"Passeig de Gràcia, 129, Barcelona, 8008, Spain",,,,Spain,Hydrogen Europe
37.5078772,15.0830304,Catania Air Liquide,,,,Catania,Italy,Hydrogen Production | European Hydrogen Observatory (europa.eu)
41173889.0,-8658576.0,CATIM - Portuguese Technological Center for the Metal Working Industry,"Rua dos Plátanos, 197, 4100-414 - Porto",,,,Portugal,Hydrogen Europe Research
48.875031,2.3128989,CB TRD,135 Boulevard Haussmann-75008 Paris,,,,France,Hydrogen France
51.495141,-0.2735772931034477,CB&I UK LIMITED,"BUILDING 3, 566 CHISWICK HIGH ROAD, CHISWICK, W4 5YA, London W4, Vereinigtes Königreich","BUILDING 3, 566 CHISWICK HIGH ROAD, CHISWICK",W4 5YA,LONDON,United Kingdom,Amadeus
60.411856,5.012415,CCB HOLDING AS,"TRANESVEGEN 22, 5347, Øygarden, Norwegen",TRANESVEGEN 22,5347,ÅGOTNES,Norway,Amadeus
48.0221517,14.4044633,CCE HQ,"Gertrude-Fröhlich-Sandner-Straße 2-4, 1100 Wien, Österreich",,,,Austria,Amadeus
43.260303,5.795442,CCI du Var,Parc d’Activités du Plateau de Signes Centre de Vie - 429 Avenue de Paris 83870 SIGNES,,,,France,Hydrogen France
48.8949394,2.2914384,CCI France - Réseau Chambre de Commerce et d'Industrie,"8-10 Rue Pierre Brossolette, 92300 Levallois-Perret, France",,,,France,Hydrogen France
59.12782,12.90776,CCI VALVE TECHNOLOGY AB,"Industrigatan 7, 661 32 Säffle, Sweden",,,,Sweden,Amadeus
53.5538393,9.9875142,CE58 MINING INDUSTRY GMBH,"HOHE BLEICHEN 22, 20354, Hamburg, Freie und Hansestadt, Deutschland",HOHE BLEICHEN 22,20354,HAMBURG,Germany,Amadeus
45.1913071,5.7141017,CEA,CEA / Grenoble 38054 GRENOBLE,,,,France,Hydrogen France
52.8184757,7.1193789,CEC HAREN GMBH & CO. KG,"LINDENALLEE 2, 49733, Emsland, Deutschland",LINDENALLEE 2,49733,HAREN,Germany,Amadeus
43.254169,5.562105,CEGE,"LE STADE, 13470, Bouches-du-Rhône, Frankreich",LE STADE,13470,CARNOUX EN PROVENCE,France,Amadeus
48.2529696,16.3930741,CEGH,"Floridsdorfer Hauptstraße 1, Wien, 1210, Austria",,,,Austria,Hydrogen Europe
46.227406,7.3645296,CELECTIS SÀRL,"RUE DE L'INDUSTRIE 23, 1950, Valais, Schweiz",RUE DE L'INDUSTRIE 23,1950,SION,Switzerland,Amadeus
59.328473,14.575033,CELL IMPACT AB (PUBL),"KÄLLMOSSVÄGEN 7 A, 691 52, Örebro, Schweden",KÄLLMOSSVÄGEN 7 A,691 52,KARLSKOGA,Sweden,Amadeus
48.6162999,9.4766146,CELLCENTRIC GMBH & CO. KG,"NEUE STR. 95, 73230, Esslingen, Deutschland",NEUE STR. 95,73230,KIRCHHEIM,Germany,Amadeus
51.66844195,8.595608739675512,CEMEX ADMIXTURES GMBH,"GESEKER STR. 31- 33, 33154, Paderborn, Deutschland",GESEKER STR. 31- 33,33154,SALZKOTTEN,Germany,Amadeus
42.8161547,-1.602188,"CENER, Centro Nacional de Energías Renovables","Avda. Ciudad de la Innovación, 7 - 31621 Sarriguren NAVARRA",,,,Spain,Hydrogen Spain
51.717255,19.407542,CENTRA SERWIS - T.Z. MITMAN SP.J.,"DUBOIS 119, 93-465, Łódź, Polen",DUBOIS 119,93-465,ŁÓDŹ,Poland,Amadeus
48.2529696,16.3930741,Central European Gas Hub AG,"Floridsdorfer Hauptstraße 1, 1210, Wien, Austria",Floridsdorfer Hauptstraße 1,1210,Wien,Austria,Hydrogen Austria
45.657072,13.828966,Central European Research Infrastructure Consortium (CERIC-ERIC),"SS14 Località Basovizza in AREA SCIENCE PARK, 34149 Basovizza TS, Italia",,,,Italy,Hydrogen Europe Research
51.1099553,16.8854572,CENTRAL FLUIDSYSTEMS Sp. z o.o.,"Graniczna 186, 54-516 Wroc?aw",Graniczna 186,54-516 Wroc?aw,,Poland,Hydrogen Poland
50.095704,14.3484669,CENTRAL GLASS CZECH S.R.O.,"EVROPSKÁ 859/115A, 16000, Obvod Praha 6, Tschechische Republik",EVROPSKÁ 859/115A,16000,PRAHA 6,Czech Republic,Amadeus
50.8703036,20.6500925,Central Hydrogen Cluster named after ?aszczy?ski Brothers,"Sandomierska 105, 25-324 Kielce",Sandomierska 105,25-324 Kielce,,Poland,Hydrogen Poland
5.6687327,-53.7784043,Centrale Électrique de l’Ouest Guyanais (CEOG),,,,French Guiana,France,Hydrogen Production and Consumption Projects | European Hydrogen Observatory (europa.eu)
52.1539303,21.0117539,Centralny Klaster Wodorowy im. Braci ?aszczy?skich,"Tango, Warszawa",Tango,Warszawa,,Poland,Hydrogen Poland
41.956049,2.799202,CENTRE DE RECERCA ECOLOGICA DELS PIRINEUS SL.,"CALLE MOSQUEROLA, 27 NAU B 9, 17180, Gerona, Spanien","CALLE MOSQUEROLA, 27 NAU B 9",17180,VILABLAREIX,Spain,Amadeus
65.618151,22.139983,Centre for Hydrogen Energy Systems Sweden - CH2ESS - Luleå University of Technology,"971 87, Sweden",,,,Sweden,Hydrogen Europe Research
48.8476256,2.2640027,Centre National de la Recherche Scientifique (CNRS),"CNRS Rue Michel-Ange 3, 75016, Ile-de-France France",,,,France,Hydrogen Europe Research
51.4835245,-0.6224384,Centrica,"Millstream, Maidenhead Rd, Windsor SL4 5GD, United Kingdom",,,,Kingdom,Hydrogen UK
51.482684,-0.621735,Centrica plc,"Millstream Maidenhead Road, Berkshire, Windsor, SL4 5GD, United Kingdom",,,,United Kingdom,Hydrogen Europe
37.20148865,-6.920086030660171,"Centro de Investigación en Tecnología, Energía y Sostenibilidad (CITES) de la Universidad de Huelva",Campus La Rábida de la Universidad de Huelva 21819 Palos de la Frontera (HUELVA),,,,Spain,Hydrogen Spain
40.455309,-3.729482,"Centro De Investigaciones Energeticas, Medioambientales y Tecnologicas (CIEMAT)","Av. Complutense, 40, 28040 Madrid, Spain",,,,Spain,Hydrogen Europe Research
39.504478,-6.362558,Centro Ibérico de Investigación en Almacenamiento Energético,"Polígono 13, Parcela 31, ""El Cuartillo"", 10004 Cáceres",,,,Spain,Hydrogen Spain
38.651018,-4.071283,CENTRO NACIONAL DEL HIDRÓGENO,"Prolongación Fernando el Santo, s/n 13500 Puertollano (Ciudad Real)",,,,Spain,Hydrogen Spain
38.704194,-4.121504,Centro Nacional del Hidrógeno (CNH2),"C. Fernando el Santo, 13500 Puertollano, Ciudad Real, Spain",,,,Spain,Hydrogen Europe Research
39.471113,-8.548441,"CENTRO TÉCNICO DE GÁS TORREJANO, UNIPESSOAL, LDA","RUA ZONA INDUSTRIAL ESTE, LOTE 3, 2350-376, Torres Novas, Portugal","RUA ZONA INDUSTRIAL ESTE, LOTE 3",2350-376,RIACHOS,Portugal,Amadeus
42.167485,-8.681984,Centro Tecnológico Energylab,"Rúa Fonte das Abelleiras, s/n, 36310 Vigo, Pontevedra, Pontevedra, Spain",,,,Spain,Hydrogen Spain
4.929128,-52.300176,CEOG,"PEPINIERE GDI CAMPUS UNIVERSITAIRE, LIEU DIT TROU BIRAN, 97300, French Guiana, Frankreich","PEPINIERE GDI CAMPUS UNIVERSITAIRE, LIEU DIT TROU BIRAN",97300,CAYENNE,France,Amadeus
48.087552,-1.674117,CEP TRAMONTANE 1,"RESIDENCE LE MERIDIEN, 103 A AVENUE HENRI FREVILLE, 35200, Ille-et-Vilaine, Frankreich","RESIDENCE LE MERIDIEN, 103 A AVENUE HENRI FREVILLE",35200,RENNES,France,Amadeus
40.4757164,-3.687750996760744,Cepsa S.A.,Paseo de la Castellana 259A,,,,Spain,Hydrogen Spain
54.9710487,-2.0995561,CERES ENERGY LIMITED,"THE OLD GRAMMAR SCHOOL HALLGATE, NE46 1XD, Hexham, Vereinigtes Königreich",THE OLD GRAMMAR SCHOOL HALLGATE,NE46 1XD,HEXHAM,United Kingdom,Amadeus
51.0716602,-0.3146613,CERES POWER HOLDINGS PLC,"VIKING HOUSE, FOUNDRY LANE, RH13 5PX, Horsham, Vereinigtes Königreich","VIKING HOUSE, FOUNDRY LANE",RH13 5PX,HORSHAM,United Kingdom,Amadeus
46.586097,0.314484,CESAME-EXADEBIT,43 rue de l'Aérodrome 86000 Poitiers,,,,France,Hydrogen France
40.593092,-3.5455722,"Cetil Dispensing Technology, S.L.","Pelaya, 37, 28110 Algete (Madrid)",,,,Spain,Hydrogen Spain
49.203661,2.606838,CETIM,52 avenue Felix-Louat CS80067 60304 Senlis Cedex,,,,France,Hydrogen France
49.2036966,2.6068348,CETIM - French Technical Center for Mechanical Industries,"52 Avenue Félix Louat, 60304 Senlis Cedex",,,,France,Hydrogen Europe Research
40.4506761,-3.6914724,CETREN,"PASEO DE LA CASTELLANA, 91. PLANTA 10 28046, MADRID",,,,Spain,Hydrogen Spain
52.3796209,9.9679116,CFL CHEMISCHE FABRIK LEHRTE GMBH & CO. KG,"KÖTHENWALDSTR., 31275, Hannover, Deutschland",KÖTHENWALDSTR.,31275,LEHRTE,Germany,Amadeus
52.322758,9.791467,CG CHEMIKALIEN GMBH & CO. HOLDING KG,"ULMER STR. 1, 30880, Hannover, Deutschland",ULMER STR. 1,30880,LAATZEN,Germany,Amadeus
43.857408,5.015012,CHABAS H2,"ROUTE D'AVIGNON, 42 LA CRAU, 84300, Vaucluse, Frankreich","ROUTE D'AVIGNON, 42 LA CRAU",84300,CAVAILLON,France,Amadeus
47.8197789,7.539769,Chalampe Linde,,,,Chalampe,France,Hydrogen Production | European Hydrogen Observatory (europa.eu)
46.8447336,-1.8794928,Challans Gois Communauté,1 Bd Lucien Dodin 85300 CHALLANS,,,,France,Hydrogen France
48.514409,-2.213847,CHALUMEAUX BRULEURS INDUSTRIELS LEFEVRE,"RUE DE PENTHIEVRE, 22130, Côtes-d'Armor, Frankreich",RUE DE PENTHIEVRE,22130,PLANCOET,France,Amadeus
45.611096,5.884036,Chambéry,"Rue des epinettes, 73290, La-Motte-Servolex, France",Rue des epinettes,73290,La-Motte-Servolex,France,Hydrogen Refuelling Stations | European Hydrogen Observatory (europa.eu)
51.5092422,-0.1409924,Chariot Green Hydrogen Ltd.,"19-21 Old Bond Street, London, W1S 4PX, United Kingdom",,,,United Kingdom,Hydrogen Europe
59.3156632,14.49785390167683,CHEMATUR TECHNOLOGIES AB,"Baggängsvägen 43, 691 46 Karlskoga, Sweden",,,,Sweden,Amadeus
43.617492,3.454946,CHEMDOC WATER TECHNOLOGIES,​9 rue du cardinal 34800 Clermont l'Hérault​,,,,France,Hydrogen France
48.92878625,21.90609655547419,"CHEMES, A.S. HUMENNÉ","CHEMLONSKÁ 1551/1, HUMENNÉ 1, 06601, Humenné, Slowakei (Slowakische Republik)","CHEMLONSKÁ 1551/1, HUMENNÉ 1",06601,HUMENNÉ,Slovakia,Amadeus
40.645871,17.937262,CHEMGAS S.R.L.,"VLE ENRICO FERMI 4, 72100, Brindisi, Italien",VLE ENRICO FERMI 4,72100,BRINDISI,Italy,Amadeus
46.2381729,6.1228783,Chemours,"Chemin du Pavillon 2, Geneva, 1218, Switzerland",,,,Switzerland,Hydrogen Europe
49.291514,2.508291,CHEMOURS FRANCE,"Rue Frédéric Kuhlmann, 60870 Rieux, France",,,,France,Hydrogen France
49.2097427,16.5885194,"CHEMPEX - HTE, A.S.","VEVEŘÍ 2209/117, 61600, Okres Brno-město, Tschechische Republik",VEVEŘÍ 2209/117,61600,BRNO,Czech Republic,Amadeus
48.627203,-1.289786,Chereau,"Zoning Industriel Le Domaine, 50220 Ducey-les-Chéris, France",,,,France,Hydrogen Europe
54.601727,-5.861652,CHERTON ENERGY LLP,"UNIT 8, 232-240 BELMONT ROAD, BT4 2AW, Belfast, Vereinigtes Königreich","UNIT 8, 232-240 BELMONT ROAD",BT4 2AW,BELFAST,United Kingdom,Amadeus
53.4102664,-1.4224206,Chesterfield Special Cylinders,"Meadowhall Road, Sheffield, S9 1BT",,,,United Kingdom,Hydrogen UK
41.824827,12.468655,CHIMEC - SOCIETA' PER AZIONI,"VIA DELLE ANDE 19, 00144, Roma, Italien",VIA DELLE ANDE 19,00144,ROMA,Italy,Amadeus
43.408606,11.777862,CHIMET - S.P.A.-,"VIA DEI LAGHI 31/33, 52041, Arezzo, Italien",VIA DEI LAGHI 31/33,52041,CIVITELLA IN VAL DI CHIANA,Italy,Amadeus
45.398107,9.250994,CHIMICAFINE S.R.L.,"VIA ROMAGNA 6, 20098, Milano, Italien",VIA ROMAGNA 6,20098,SAN GIULIANO MILANESE,Italy,Amadeus
52.083249,4.3080831,Chiyoda Corporation Netherlands B.V.,"Parkstraat 83, The Hague, 2514 JG, Netherlands",,,,Netherlands,Hydrogen Europe
48.0755965,11.6551996,CHORUS WIND SONTRA GMBH & CO. KG,"PROFESSOR-MESSERSCHMITT-STR. 3, 85579, München, Landkreis, Deutschland",PROFESSOR-MESSERSCHMITT-STR. 3,85579,NEUBIBERG,Germany,Amadeus
50.9796666,13.945112,CHP CARBOHYDRATE PIRNA GMBH & CO. KG,"LOHMENER STR. 12, 01796, Sächsische Schweiz, Deutschland",LOHMENER STR. 12,01796,PIRNA,Germany,Amadeus
55.807631,12.581515,CHRISTIAN NIELSEN STRANDMØLLEN A/S,"STRANDVEJEN 895, 2930, Lyngby-Tårbæk, Dänemark",STRANDVEJEN 895,2930,KLAMPENBORG,Denmark,Amadeus
54.3412831,10.1184822,Christian-Albrechts-Universität zu Kiel - Mathematisch-Naturwissenschaftliche Fakultät - Sektion Chemie - Institut für Anorganische Chemie,"Max-Eyth-Str. 2, 24118, Kiel, Germany",Max-Eyth-Str. 2,24118,Kiel,Germany,Hydrogen Germany
48.685061,2.217322,CHROMOPTIC,"ZAC DE VILLEJUST, AVENUE AVENUE DES 2 LACS, 91140, Essonne, Frankreich","ZAC DE VILLEJUST, AVENUE AVENUE DES 2 LACS",91140,VILLEJUST,France,Amadeus
51.4956292,-0.1460347,CHRYSAOR NORTH SEA LIMITED,"23 LOWER BELGRAVE STREET, SW1W 0NR, London SW1W, Vereinigtes Königreich",23 LOWER BELGRAVE STREET,SW1W 0NR,LONDON,United Kingdom,Amadeus
47.2665491,-1.4881299,CIAM Europe Technologies,2 rue de la fonderie 44475 Carquefou,,,,France,Hydrogen France
42.9110022,-2.669049538564849,CIC energiGUNE,Albert Einstein 48 01510 Vitoria-Gasteiz (Álava) Spain,,,,Spain,Hydrogen Europe Research
46.036784,8.944537,CICLONE SA,"C/O STEFANO REZZONICO, PIAZZETTA DEI TARILLI 4, 6944, Ticino, Schweiz","C/O STEFANO REZZONICO, PIAZZETTA DEI TARILLI 4",6944,CUREGLIA,Switzerland,Amadeus
41.531319,-4.729583,CIDAUT Foundation,"Plaza Vicente Aleixandre Campos, 2 P209-Parque Tecnologico de Boecillo, 47151 Boecillo, Valladolid, Spain",,,,Spain,Hydrogen Europe Research
51.798492,11.3666873,CIECH SODA DEUTSCHLAND GMBH & CO. KG,"AN DER LÖDERBURGER BAHN, 39418, Salzlandkreis, Deutschland",AN DER LÖDERBURGER BAHN,39418,STAßFURT,Germany,Amadeus
40.455309,-3.729482,CIEMAT,"Av. Complutense, 40, 28040 Madrid",,,,Spain,Hydrogen Spain
41.0803622,14.25341458967935,CIRA - Centro Italiano di Ricerca Aerospaziale,"Via Maiorise, 81043 Capua, Campania Italy",,,,Italy,Hydrogen Europe Research
40.458236,-3.684418,Circle Energy,"Avda. Alberto Alcocer 24 , piso 7 , 28036 - Madrid",,,,Spain,Hydrogen Spain
52.522008,5.5803659,Circul8 Energy BV,"Wisentweg 64, Lelystad, 8219 PL, Netherlands",,,,Netherlands,Hydrogen Europe
43.549849,1.593045,Cirtem,"4 Avenue Louis Blériot, ZA Val de Saune 31570 Sainte-Foy d’Aigrefeuille",,,,France,Hydrogen France
51.413956,-0.758812,CITY TECHNOLOGY LIMITED,"HONEYWELL HOUSE, SKIMPED HILL LANE, RG12 1EB, Bracknell, Vereinigtes Königreich","HONEYWELL HOUSE, SKIMPED HILL LANE",RG12 1EB,BRACKNELL,United Kingdom,Amadeus
43.353995,-8.396234,"CITYEGO, S.L.","LUGAR MUELLE DARSENA DE OZA (MARINA SECA), S/N, 15006, La Coruña, Spanien","LUGAR MUELLE DARSENA DE OZA (MARINA SECA), S/N",15006,A CORUÑA,Spain,Amadeus
48.970462,2.306688,CKC ETERNAL ENERGY,"44 RUE DU GENERAL DE GAULLE, 95880, Val-d'Oise, Frankreich",44 RUE DU GENERAL DE GAULLE,95880,ENGHIEN LES BAINS,France,Amadeus
42.211559,2.607867,CLANTECH,"CALLE INDUSTRIA 5, 1ª PLANTA",,,,Spain,Hydrogen Spain
47.8928472,11.9274761,Clariant Produkte (Deutschland) GmbH - Katalyselabor Heufeld,"Waldheimer Str. 13, 83052, Bruckmühl, Germany",Waldheimer Str. 13,83052,Bruckmühl,Germany,Hydrogen Germany
43.426607,5.391061,CLARKE ENERGY FRANCE,"111 rue Marcel Dassault, ZAC des Chabauds, 13320 Bouc Bel Air, France",,,,France,Hydrogen France
52.7713518,-0.8929369,Clean Air Power,"Pera Business Park, Nottingham Road, Melton Mowbray, Leicestershire, LE13 0PB",,,,United Kingdom,Hydrogen UK
52.50213,13.377993,CLEAN ENERGY PARTNERSHIP (CEP) E.V.,"SCHÖNEBERGER STR., 10963, Berlin, Deutschland",SCHÖNEBERGER STR.,10963,BERLIN,Germany,Amadeus
48.8719642,2.3338448,Clean Horizon Consulting,12 rue de la Chaussée d’Antin 75009 Paris,,,,France,Hydrogen France
53.5261028,-1.1282682,CLEAN POWER HYDROGEN GROUP LIMITED,"UNIT D PARKSIDE BUSINESS PARK, SPINNERS ROAD, DN2 4BL, Doncaster, Vereinigtes Königreich","UNIT D PARKSIDE BUSINESS PARK, SPINNERS ROAD",DN2 4BL,DONCASTER,United Kingdom,Amadeus
52.335403,4.854832,Clear Corporate Finance,"Jachthavenweg, Amsterdam, 1081KM, Netherlands",,,,Netherlands,Hydrogen Europe
60.1655947,24.9523295,CLIC Innovation,"Eteläranta 10, 5th floor, Helsinki, FI-00130, Finland",,,,Finland,Hydrogen Europe
40.3057073,21.78828190196462,Cluster of Bioeconomy and Environment of Western Macedonia (CluBE),"Argirokastrou 13, Kozani 501 00, Greece",,,,Greece,Hydrogen Europe
51.4918598,-3.1343567,CMB RENEWABLES LIMITED,"1, Alexandra Gate, Ffordd Pengam, Cardiff CF24 2SA, United Kingdom",,,,Kingdom,Amadeus
51.541411,-2.6222063,CMB Tech,"Prospect House, Prospect Way, Hutton, Essex, CM13 1XA",,,,United Kingdom,Hydrogen UK
51.208909,4.386269,CMB.TECH,"De Gerlachekaai 20, Antwerpen, 2000, Belgium",,,,Belgium,Hydrogen Europe
51.208909,4.386269,CMB.TECH BELGIUM,"DE GERLACHEKAAI 20, 2000, Antwerp, Belgien",DE GERLACHEKAAI 20,2000,ANTWERPEN,Belgium,Amadeus
49.225145,-1.098214,CMC MATERIALS UPC SAS,"4 Hameau Vieilles Hayes, 50620 Saint-Fromond, France",,,,France,Amadeus
43.696917,4.633606,CMP Arles,1 rue Nicolas Copernic 13200 Arles,,,,France,Hydrogen France
39.480987,-0.341354,CMT-MOTORES TÉRMICOS,"Camino de Vera s/n, 46022, Valencia, España",,,,Spain,Hydrogen Spain
43.5619103,1.481486,CNES,"18 Av. Edouard Belin, 31400 Toulouse, France",,,,France,Hydrogen France
38.7858,-9.104625,"CNET - CENTRE FOR NEW ENERGY TECHNOLOGIES, S.A.","R. Particular à R. Cidade de Goa 2, Sacavém, 2685-038, Portugal",,,,Portugal,Hydrogen Europe
49.095195,1.42913,CNPP Entreprise,Route de la Chapelle Reanville 27950 Saint Marcel,,,,France,Hydrogen France
48.68137695,8.871641367274679,COASTAL INVEST REALTY GMBH,"TAUSCHFELDSTR. 6, 71134, Böblingen, Deutschland",TAUSCHFELDSTR. 6,71134,AIDLINGEN,Germany,Amadeus
39.036677,-5.874988,CO-AX VÁLVULAS S.L.,"Pol. Ind. Sur, Calle Cancheras, 2. Nave E3-06, 28750, San Agustín de Guadalix, Madrid.",,,,Spain,Hydrogen Spain
40.466701,-3.670868,COBRA IS,Cardenal Marcelo Spinola 6- Madrid,,,,Spain,Hydrogen Spain
43.408883,-6.199118,"CODEGAS SOLDADURA, S.L.","CALLE ZUBIBARRI, 3 INT, 01013, Alava, Spanien","CALLE ZUBIBARRI, 3 INT",01013,VITORIA-GASTEIZ,Spain,Amadeus
49.46360835,11.0099814,CODEX-ENGINEERING GMBH,"RICHARD-WAGNER-STR. 43, 90763, Fürth, Deutschland",RICHARD-WAGNER-STR. 43,90763,FÜRTH,Germany,Amadeus
48.886425,2.251741,Coénove,8 Terrasse Bellini 92800 Puteaux,,,,France,Hydrogen France
51.4362425,7.0029856,COFERMIN CHEMICALS GMBH & CO. KG,"ALFREDSTR. 61, 45130, Essen, Deutschland",ALFREDSTR. 61,45130,ESSEN,Germany,Amadeus
49.0435631,2.0331125,COGNE FRANCE,16 rue de la patelle-bp-80119- 95613 Cergy Pontoise,,,,France,Hydrogen France
48.0707949,7.3649904,Collectivité européenne d'Alsace,100 Avenue d'Alsace BP 20351 68006 Colmar Cedex,,,,France,Hydrogen France
41.480661,1.984681,COLOR QUIMICA SA,"CALLE ARTESANS ((POL IND COMTE DE SERT)), 2 2-3, 08755, Barcelona, Spanien","CALLE ARTESANS ((POL IND COMTE DE SERT)), 2 2-3",08755,CASTELLBISBAL,Spain,Amadeus
50.089597,19.891692,Columbus Energy S.A.,"Jasnogórska 9 klatka B, 31-358 Kraków",Jasnogórska 9 klatka B,31-358 Kraków,,Poland,Hydrogen Poland
47.194938,8.880352,COMBIFUEL SWISS AG,"LEUHOLZ 14, 8855, Schwyz, Schweiz",LEUHOLZ 14,8855,WANGEN SZ,Switzerland,Amadeus
45.1318034,24.3653664,COMCHIM CHEMICAL SRL,"Strada Timiș 2, Râmnicu Vâlcea 247065, Romania",,,,Romania,Amadeus
37.223367,-3.642154,COMERCIAL PEREZ CORVERA SL,"CALLE ALMUÑECAR (POL INDUSTRIAL JUNCARIL), PAR 216, 18220, Granada, Spanien","CALLE ALMUÑECAR (POL INDUSTRIAL JUNCARIL), PAR 216",18220,ALBOLOTE,Spain,Amadeus
39.5693111,-0.3297204,COMEVAL VALVE SYSTEMS,"Carrer les Rotés, 15, 46540 El Puig de Santa Maria, Valencia, Spain",,,,Spain,Hydrogen Spain
48.8399972,2.2737149,Commissariat à l'énergie atomique et aux énergies alternatives (CEA),"Rue Leblanc 25, 75015, Paris, France",,,,France,Hydrogen Europe Research
50.0342933,12.1579799,COMMON SENSE INVEST GMBH & CO. KG,"HAUPTSTR. 15, 95659, Wunsiedel, Deutschland",HAUPTSTR. 15,95659,ARZBERG,Germany,Amadeus
49.521605,0.538512,Communauté d'Agglomération Caux Vallée de Seine,Allée de Catillon 76170 Lillebonne,,,,France,Hydrogen France
47.7953193,3.5700015,Communauté d'agglomération de l'Auxerrois,"6 bis place du maréchal Leclerc, 89010 Auxerre cedex",,,,France,Hydrogen France
50.397198,3.102187,Communauté d'Agglomération du Douaisis,746 rue Jean-Perrin 59351 Douai,,,,France,Hydrogen France
45.042611,5.044092651463103,Communauté d'Agglomération du Grand Albigeois,"Parc François Mitterrand, 81160 Saint-Juéry, France",,,,France,Hydrogen France
45.6586325,0.1608784,Communauté d'Agglomération du Grand Angoulême,25 Boulevard Besson Bey 16023 Angoulême,,,,France,Hydrogen France
47.089895,5.48813,Communauté d'Agglomération du Grand Dole,Place de l'Europe 39100 DOLE,,,,France,Hydrogen France
43.220417,6.513153,Communauté de Communes Du Golfe de Saint-Tropez,"Quartier Pampelonne, 83350 Ramatuelle, France",,,,France,Hydrogen France
47.256613,0.693145,Communauté de communes Touraine Vallée de l'Indre,"ZA ISOPARC, 6 place de Saint-Exupéry 37250 Sorigny",,,,France,Hydrogen France
45.504984,4.615495,Commune de Châteauneuf,218 Route du BAJARD 42800 CHATEAUNEUF,,,,France,Hydrogen France
53.28547285,-2.746378660597966,Community Wind Power,"Godscroft Ln, Frodsham WA6 6XU, United Kingdom",,,,Kingdom,Hydrogen UK
49.482569,0.153993,Compagnie Fluviale de Transport (CFT),"11 rue du pont 5, Le Havre, 76080, France",,,,France,Hydrogen Europe
45.775013,4.8130657,Compagnie Nationale du Rhône,2 rue André Bonin 69004 LYON,,,,France,Hydrogen France
42.815953,-1.642547,Comunidad Foral de Navarra - Gobierno de Navarra,"AVENIDA CARLOS III 2, Pamplona, 31002, Spain",,,,Spain,Hydrogen Europe
51.5223248,-0.1447784,Conduit Ventures Limited,"3-4 Devonshire St, London W1W 5DT, United Kingdom",,,,United Kingdom,Hydrogen UK
39.972082,-0.076769,CONECTAGAS LEVANTE SOCIEDAD LIMITADA.,"CALLE DE BELGICA, 135, 12006, Castellón, Spanien","CALLE DE BELGICA, 135",12006,CASTELLO DE LA PLANA,Spain,Amadeus
40.4371769,-3.6816333,Confederación Española de Empresarios de Estaciones de Servicio (CEEES),"Calle de Núñez de Balboa, 116, 3ª planta, 28006 Madrid",,,,Spain,Hydrogen Spain
55.67534,12.568018,Confederation of Danish Industry,"H. C. Andersens Boulevard 18, Copenhagen, 1553, Denmark",,,,Denmark,Hydrogen Europe
51.67204185,-1.30321925,CONRAD LIMITED,"SUITES D & E, WINDRUSH COURT, BLACKLANDS WAY, OX14 1SY, Abingdon, Vereinigtes Königreich","SUITES D & E, WINDRUSH COURT, BLACKLANDS WAY",OX14 1SY,ABINGDON,United Kingdom,Amadeus
52.0448646,4.3565837,CONSCIOUS AEROSPACE B.V.,"LAAN VAN YPENBURG 108, 2497 GC, S Gravenhage, Niederlande",LAAN VAN YPENBURG 108,2497 GC,'S-GRAVENHAGE,Netherlands,Amadeus
44.517801,3.49862,Conseil Départemental de la Lozère,4 RUE DE LA ROVERE BP 24 48001 MENDE CEDEX,,,,France,Hydrogen France
48.8663333,2.3645359,Conseil départemental de Loir-et-Cher,1 PLACE DE LA REPUBLIQUE,,,,France,Hydrogen France
48.541173,2.656059496835443,Conseil départemental de Seine-et-Marne,Hôtel du département 12 rue des Saints-Pères 77000 Melun,,,,France,Hydrogen France
45.740575,4.820078,Conseil Régional Auvergne-Rhône-Alpes,"1 Espl. François Mitterrand, Lyon Cedex 2, CS 20033 - 69002, France",,,,France,Hydrogen Europe
48.1347358,-1.6602951,Conseil regional de Bretagne,"283 AV Général George Patton, Rennes, 35700, France",,,,France,Hydrogen Europe
44.8365393,-0.5892062,Conseil Régional Nouvelle Aquitaine,"14 Rue François de Sourdis, Bordeaux, 33000, France",,,,France,Hydrogen Europe
40.4409945,-3.6878876,CONSEJO SUPERIOR DE INVESTIGACIONES CIENTÍFICAS (CSIC),"C. de Serrano, 117, Chamartín, 28006 Madrid, Spain",,,,Spain,Hydrogen Spain
38.111743,15.652264,Consiglio Nazionale delle Ricerche (CNR),"Via Salita Santa Lucia sopra Contesse, 5, 98126 Messina, Italy",,,,Italy,Hydrogen Europe Research
52.65985265,-8.629272160356113,CONSTANT ENERGY LIMITED,"6TH FLOOR RIVERPOINT, LOWER MALLOW STREET, V94 WC6A, Limerick, Irland","6TH FLOOR RIVERPOINT, LOWER MALLOW STREET",V94 WC6A,LIMERICK,Ireland,Amadeus
51.3608112,6.4335441,CONVERTERTEC DEUTSCHLAND GMBH,"KREFELDER WEG 47, 47906, Viersen, Deutschland",KREFELDER WEG 47,47906,KEMPEN,Germany,Amadeus
60.1840754,24.8142991,CONVION,"Tekniikantie 12, Espoo, 2150, Finland",,,,Finland,Hydrogen Europe
52.1432935,6.1959377,COÖPERATIE GLDH2 U.A.,"OVERWELVING 10, 7201 LT, Zutphen, Niederlande",OVERWELVING 10,7201 LT,ZUTPHEN,Netherlands,Amadeus
47.5010073,7.0054993,COOPÉRATIVE COOPERGY,"ROUTE DE DÉRIDEZ 24, 2926, Jura, Schweiz",ROUTE DE DÉRIDEZ 24,2926,BONCOURT,Switzerland,Amadeus
48.855768,2.77158,Coordef Ingénierie,Immeuble le Véga – 5 rue de la Galmy 77700 CHESSY,,,,France,Hydrogen France
59.941889,10.715648,CoorsTek Membrane Sciences AS,"Gaustadalleen 21, Oslo, 349, Norway",,,,Norway,Hydrogen Europe
55.657684,12.55793,Copenhagen,"Energiporten 2, 2450, Copenhagen, Denmark",Energiporten 2,2450,Copenhagen,Denmark,Hydrogen Refuelling Stations | European Hydrogen Observatory (europa.eu)
55.669904,12.62261,Copenhagen - S,"Prags Boulevard 69B, 2300, Copenhagen - S, Denmark",Prags Boulevard 69B,2300,Copenhagen - S,Denmark,Hydrogen Refuelling Stations | European Hydrogen Observatory (europa.eu)
55.605839100839,12.4883102125384,Copenhagen Hydrogen Partnership/Green Fuels for Denmark (Phase 1),,,,Copenhagen,Denmark,Hydrogen Production and Consumption Projects | European Hydrogen Observatory (europa.eu)
55.700593,12.593547,Copenhagen Infrastructure Partners P/S,"Amerika Plads 29, Copenhagen, 2100, Denmark",,,,Denmark,Hydrogen Europe
40.4332193,-3.6876122,Copenhaguen Infrastructure Partners,"P.º de la Castellana, 40 bis, Planta 2, Salamanca, 28046 Madrid, Spain",,,,Spain,Hydrogen Spain
52.3350351,6.6566787,CORENT B.V.,"AMBACHTSTRAAT 4, 7609 RA, Almelo, Niederlande",AMBACHTSTRAAT 4,7609 RA,ALMELO,Netherlands,Amadeus
41.863851,16.172146,Corsica Sole,CORSICA SOLE Village  20251 Pancheraccia,,,,Italy,Hydrogen France
42.113278,9.477144,Corstyrène Energy,4270 Route d’Antisanti 20270 ALERIA,,,,France,Hydrogen France
45.111287,9.86327,COS.MO ITALIA SRL,"VIA GIOVANNI MASSARI 3, 26843, Lodi, Italien",VIA GIOVANNI MASSARI 3,26843,CASTELNUOVO BOCCA D'ADDA,Italy,Amadeus
45.77531,12.020438,COTTON TREND S.R.L.,"VIA GIULIO PASTORE 10/A, 31044, Treviso, Italien",VIA GIULIO PASTORE 10/A,31044,MONTEBELLUNA,Italy,Amadeus
52.408227,-1.507184,Coventry University,"Priory St, Coventry CV1 5FB, Regno Unito",,,,United Kingdom,Hydrogen Europe Research
37.3774015,-6.0137585,Coxabengoa,"Energía Solar 1, Sevilla, 41014, Spain",,,,Spain,Hydrogen Europe
50.0712118,19.9431226,Cracow University of Technology,"Warszawska 24, 31-155 Kraków",Warszawska 24,31-155 Kraków,,Poland,Hydrogen Poland
