"Lat","Lon","Name","Full Address","Address","ZIP","City","Country","Source"
59.922627,10.682958,"Scatec ASA","Askekroken 11, Oslo, 559, Norway",NA,NA,NA,"Norway","Hydrogen Europe"
59.922149,10.687623,"YARA CLEAN AMMONIA AS","DRAMMENSVEIEN 131, 0277, Oslo, Norwegen","DRAMMENSVEIEN 131","0277","OSLO","Norway","Amadeus"
59.922107,10.687574,"YARA","Drammensveien 131, Oslo, 277, Norway",NA,NA,NA,"Norway","Hydrogen Europe"
59.921177,10.673545,"ELKEM SILICONES SCANDINAVIA AS","DRAMMENSVEIEN 169, 0277, Oslo, Norwegen","DRAMMENSVEIEN 169","0277","OSLO","Norway","Amadeus"
59.921166,10.681725,"NEL ASA","KARENSLYST ALLÉ 49, 0279, Oslo, Norwegen","KARENSLYST ALLÉ 49","0279","OSLO","Norway","Amadeus"
59.920193,10.683579,"NEL FUEL AS","KARENSLYST ALLÉ 20, 0278, Oslo, Norwegen","KARENSLYST ALLÉ 20","0278","OSLO","Norway","Amadeus"
59.9199739,10.6739503,"HYDRO ENERGI AS","VÆKERØ DRAMMENSVEIEN 264, 0283, Oslo, Norwegen","VÆKERØ DRAMMENSVEIEN 264","0283","OSLO","Norway","Amadeus"
59.919774,10.729756,"BUHEII VINDKRAFT AS","WERGELANDSVEIEN 23B, 0167, Oslo, Norwegen","WERGELANDSVEIEN 23B","0167","OSLO","Norway","Amadeus"
59.91957,10.726114,"GREEN H AS","PARKVEIEN 33B, 0258, Oslo, Norwegen","PARKVEIEN 33B","0258","OSLO","Norway","Amadeus"
59.913821,10.650463,"HYDRO HAVRAND AS","DRAMMENSVEIEN 264, 0283, Oslo, Norwegen","DRAMMENSVEIEN 264","0283","OSLO","Norway","Amadeus"
59.913821,10.650463,"NORSK HYDRO ASA","DRAMMENSVEIEN 264, 0283, Oslo, Norwegen","DRAMMENSVEIEN 264","0283","OSLO","Norway","Amadeus"
59.913629,10.644854,"HAVIND AS","DRAMMENSVEIEN 288, 0283, Oslo, Norwegen","DRAMMENSVEIEN 288","0283","OSLO","Norway","Amadeus"
59.912877,10.731079,"Hexagon Purus","Haakon VIIs gate 2, Oslo, 161, Norway",NA,NA,NA,"Norway","Hydrogen Europe"
59.9127853,10.6362776,"TECO 2030 ASA","LYSAKER TORG 45, 1366, Bærum, Norwegen","LYSAKER TORG 45","1366","LYSAKER","Norway","Amadeus"
59.911752,10.635617,"TECO 2030","Lysaker Torg 12, Lysaker, 1366, Norway",NA,NA,NA,"Norway","Hydrogen Europe"
59.910636,10.727314,"ENBW NORWAY AS","BUSINESS VILLAGE AKER BRYGGE GRUNDINGEN 6, 0250, Oslo, Norwegen","BUSINESS VILLAGE AKER BRYGGE GRUNDINGEN 6","0250","OSLO","Norway","Amadeus"
59.9098534,10.7267187,"NORTH AMMONIA AS","Bryggegata 6, 0250 Oslo, Norway",NA,NA,NA,"Norway","Amadeus"
53.6212995,10.0152091,"SHELL DEUTSCHLAND GMBH","SUHRENKAMP 71-77, 22335, Hamburg, Freie und Hansestadt, Deutschland","SUHRENKAMP 71-77","22335","HAMBURG","Germany","Amadeus"
53.62,10,"H2 Station",NA,NA,NA,"Hamburg","DE","www.H2stations.org"
53.606164,10.01931,"CARNEADES HYDROGEN GMBH","ÜBERSEERING, 22297, Hamburg, Freie und Hansestadt, Deutschland","ÜBERSEERING","22297","HAMBURG","Germany","Amadeus"
53.6011669,9.9693995,"VIRHTECH GMBH","OFFAKAMP 9 F, 22529, Pinneberg, Deutschland","OFFAKAMP 9 F","22529","HAMBURG","Germany","Amadeus"
53.591222,9.905904,"TESA MANUFACTURING HAMBURG GMBH","SCHNACKENBURGALLEE 160, 22525, Hamburg, Freie und Hansestadt, Deutschland","SCHNACKENBURGALLEE 160","22525","HAMBURG","Germany","Amadeus"
53.5885007,9.9805379,"ETERNAL POWER GMBH","HAYNSTR. 33, 20249, Hamburg, Freie und Hansestadt, Deutschland","HAYNSTR. 33","20249","HAMBURG","Germany","Amadeus"
53.5866877,9.907006,"ELAFLEX HIBY GmbH & Co. KG","Schnackenburgallee 121, 22525, Hamburg, Germany","Schnackenburgallee 121","22525","Hamburg","Germany","Hydrogen Germany"
53.57431115,10.0090636545315,"POURKIAN GROUP BETEILIGUNG GMBH","KARLSTR. 1 A, 22085, Hamburg, Freie und Hansestadt, Deutschland","KARLSTR. 1 A","22085","HAMBURG","Germany","Amadeus"
53.573986,10.070329,"ALPHA E-STREAM GMBH","WANDSBEKER ALLEE 77, 22041, Hamburg, Freie und Hansestadt, Deutschland","WANDSBEKER ALLEE 77","22041","HAMBURG","Germany","Amadeus"
53.57,9.92,"H2 Station",NA,NA,NA,"Hamburg","DE","www.H2stations.org"
53.5614482,10.0143088787334,"WTE AG","AN DER ALSTER 6, 20099, Hamburg, Deutschland","AN DER ALSTER 6","20099","HAMBURG","Germany","Amadeus"
53.560131,9.995724,"HEMTRON GMBH","ALSTERUFER 5, 20354, Hamburg, Freie und Hansestadt, Deutschland","ALSTERUFER 5","20354","HAMBURG","Germany","Amadeus"
53.5547008,9.9809094,"HH2E WERK ARNEBURG GMBH","Kaiser-Wilhelm-Straße 93, 20355 Hamburg, Germany",NA,NA,NA,"Germany","Amadeus"
53.5543815,9.9844534,"JET TANKSTELLEN DEUTSCHLAND GMBH","CAFFAMACHERREIHE 1, 20355, Hamburg, Freie und Hansestadt, Deutschland","CAFFAMACHERREIHE 1","20355","HAMBURG","Germany","Amadeus"
53.5538393,9.9875142,"CE58 MINING INDUSTRY GMBH","HOHE BLEICHEN 22, 20354, Hamburg, Freie und Hansestadt, Deutschland","HOHE BLEICHEN 22","20354","HAMBURG","Germany","Amadeus"
53.5530846,9.9936819,"Unknown",NA,NA,NA,"Hamburg","Germany","Hydrogen Production | European Hydrogen Observatory (europa.eu)"
53.5520846,9.9936819,"Unknown",NA,NA,NA,"Hamburg","Germany","Hydrogen Production | European Hydrogen Observatory (europa.eu)"
53.5512805,9.9837192,"Renewable Energy Hamburg Clusteragentur GmbH","Wexstrasse 7, Hamburg, 20355, Germany",NA,NA,NA,"Germany","Hydrogen Europe"
53.5511816,9.9892171,"PETROFAC DEUTSCHLAND GMBH","NEUER WALL 50, 20354, Hamburg, Freie und Hansestadt, Deutschland","NEUER WALL 50","20354","HAMBURG","Germany","Amadeus"
53.5510846,9.9936819,"Unknown",NA,NA,NA,"Hamburg","Germany","Hydrogen Production | European Hydrogen Observatory (europa.eu)"
53.5510836,10.0275876,"Sasol Germany GmbH","Anckelmannsplatz 1, Hamburg, 20537, Germany",NA,NA,NA,"Germany","Hydrogen Europe"
53.5506141,9.9877896,"DEINLAND SOLAR DEVELOPMENT GMBH","NEUER WALL 80, 20354, Hamburg, Freie und Hansestadt, Deutschland","NEUER WALL 80","20354","HAMBURG","Germany","Amadeus"
53.550341,10.000654,"Technische Universität Hamburg","Denickestr. 17, 21073, Hamburg, Germany","Denickestr. 17","21073","Hamburg","Germany","Hydrogen Germany"
53.5498259,9.9912661,"WASSERSTOFF-GESELLSCHAFT HAMBURG E.V.","ADOLPHSPLATZ 1, 20457, Hamburg, Freie und Hansestadt, Deutschland","ADOLPHSPLATZ 1","20457","HAMBURG","Germany","Amadeus"
53.5492119,9.99966147437868,"HYSOLUTIONS GMBH","BURCHARDSTR. 19 /21, 20095, Hamburg, Freie und Hansestadt, Deutschland","BURCHARDSTR. 19 /21","20095","HAMBURG","Germany","Amadeus"
53.5463115,9.9786558,"cruh21 GmbH","Erste Brunnenstr. 1, 20459, Hamburg, Germany","Erste Brunnenstr. 1","20459","Hamburg","Germany","Hydrogen Germany"
53.5459162654515,10.0025167626962,"Hamburg Hafen City HRS",NA,NA,NA,"Hamburg","Germany","Hydrogen Production | European Hydrogen Observatory (europa.eu)"
53.54481345,9.95169973734263,"DGMK DEUTSCHE WISSENSCHAFTLICHE GESELLSCHAFT FÜR NACHHALTIGE ENERGIETRÄGER, MOBILITÄT UND KOHLENSTOFFKREISLÄUFE E.V.","GROßE ELBSTR., 22767, Hamburg, Freie und Hansestadt, Deutschland","GROßE ELBSTR.","22767","HAMBURG","Germany","Amadeus"
53.5445199,9.99434979149005,"OLF DEUTSCHLAND GMBH","BROOK 2 /BLOCK H, 20457, Hamburg, Freie und Hansestadt, Deutschland","BROOK 2 /BLOCK H","20457","HAMBURG","Germany","Amadeus"
53.5439163,10.002046,"Mabanaft GmbH & Co. KG","Koreastraße 7, Hamburg, 20457, Germany",NA,NA,NA,"Germany","Hydrogen Europe"
53.54334705,9.93411251917674,"ORSTED SALES GMBH","VAN-DER-SMISSEN-STR. 9, 22767, Hamburg, Freie und Hansestadt, Deutschland","VAN-DER-SMISSEN-STR. 9","22767","HAMBURG","Germany","Amadeus"
53.5431866,9.9947823,"HANSEATIC ENERGY HUB GMBH","AM SANDTORKAI 48, 20457, Hamburg, Freie und Hansestadt, Deutschland","AM SANDTORKAI 48","20457","HAMBURG","Germany","Amadeus"
53.540821,9.9859471,"H2 GO GMBH","AM KAISERKAI 69, 20457, Hamburg, Freie und Hansestadt, Deutschland","AM KAISERKAI 69","20457","HAMBURG","Germany","Amadeus"
53.5401676,10.0025099,"Gujarat Fluorochemicals","Überseeallee 10, Regus Business Centre, Hamburg, 20457, Germany",NA,NA,NA,"Germany","Hydrogen Europe"
53.5335376,9.9806284,"Hamburger Hafen und Logistik Aktiengesellschaft","Bei St. Annen 1, 20457, Hamburg, Germany","Bei St. Annen 1","20457","Hamburg","Germany","Hydrogen Germany"
53.53,9.95,"H2 Station",NA,NA,NA,"Hamburg","DE","www.H2stations.org"
53.5142697661571,9.95004694091784,"H&R Ölwerke Schindler Hamburg-Neuhof",NA,NA,NA,"Hamburg-Neuhof","Germany","Hydrogen Production | European Hydrogen Observatory (europa.eu)"
52.57,13.43,"H2 Station",NA,NA,NA,"Berlin","DE","www.H2stations.org"
52.5544445,13.2903589,"HH2E AG","Gebäude H Tegel Flughafen 1, 13405 Berlin, Germany",NA,NA,NA,"Germany","Recherche"
52.5349777,13.4195789,"PANKE WIND GMBH","RYKESTR. 3, 10405, Berlin, Deutschland","RYKESTR. 3","10405","BERLIN","Germany","Amadeus"
52.5278783,13.3794305,"DWV","Robert-Koch-Platz 4, Berlin, D-10115, Germany",NA,NA,NA,"Germany","Hydrogen Europe"
52.5276209,13.4039894,"LAVO GERMANY GMBH","MULACKSTR. 22, 10119, Berlin, Deutschland","MULACKSTR. 22","10119","BERLIN","Germany","Amadeus"
52.524042,13.402083,"GRTGAZ DEUTSCHLAND GMBH","ROSENTHALER STR. 40 /41, 10178, Berlin, Deutschland","ROSENTHALER STR. 40 /41","10178","BERLIN","Germany","Amadeus"
52.5228747,13.3809023,"BDEW","Reinhardtstr. 32, Berlin, 10117, Germany",NA,NA,NA,"Germany","Hydrogen Europe"
52.5190732,13.3887972,"HYNAMICS DEUTSCHLAND GMBH","FRIEDRICHSTR. 94, 10117, Berlin, Deutschland","FRIEDRICHSTR. 94","10117","BERLIN","Germany","Amadeus"
52.517666,13.385818,"ZUKUNFT GAS GMBH","NEUSTÄDTISCHE KIRCHSTR., 10117, Berlin, Deutschland","NEUSTÄDTISCHE KIRCHSTR.","10117","BERLIN","Germany","Amadeus"
52.5120847,13.3099149,"EW MEDIEN UND KONGRESSE GMBH","BISMARCKSTR. 33, 10625, Berlin, Deutschland","BISMARCKSTR. 33","10625","BERLIN","Germany","Amadeus"
52.5120216,13.4158772,"Institut für Klimaschutz, Energie und Mobilität - Recht, Ökonomie und Politik e.V.","Magazinstr. 15 - 16, 10179, Berlin, Germany","Magazinstr. 15 - 16","10179","Berlin","Germany","Hydrogen Germany"
52.5118779,13.376104,"HIF EMEA GMBH","LENNESTR. 3, 10785, Berlin, Deutschland","LENNESTR. 3","10785","BERLIN","Germany","Amadeus"
52.511521,13.3915077,"IBERDROLA STROM GMBH","CHARLOTTENSTR. 63, 10117, Berlin, Deutschland","CHARLOTTENSTR. 63","10117","BERLIN","Germany","Amadeus"
52.5112731,13.3889185,"LIFTE H2-GMBH","KRONENSTR. 63, 10117, Berlin, Deutschland","KRONENSTR. 63","10117","BERLIN","Germany","Amadeus"
52.5111993,13.3872982,"OHD OFFSHORE HYDROGEN DEVELOPMENT ADMINISTRATION TWO GMBH","KRONENSTR. 73, 10117, Essen, Deutschland","KRONENSTR. 73","10117","BERLIN","Germany","Amadeus"
52.5111659,13.4042824,"HDF ENERGY DEUTSCHLAND GMBH","WALLSTR. 9, 10179, Berlin, Deutschland","WALLSTR. 9","10179","BERLIN","Germany","Amadeus"
52.5105511,13.3913361,"S-H2 - SUSTAINABLE HYDROGEN GMBH","LEIPZIGER STR. 96, 10117, Berlin, Deutschland","LEIPZIGER STR. 96","10117","BERLIN","Germany","Amadeus"
52.51,13.26,"H2 Station",NA,NA,NA,"Berlin","DE","www.H2stations.org"
52.5094467,13.3796957,"MULTIPLY AG","LEIPZIGER PLATZ 11, 10117, Berlin, Deutschland","LEIPZIGER PLATZ 11","10117","BERLIN","Germany","Amadeus"
52.5089423,13.3750321,"LIFTE H2","Potsdamer Platz 1, Berlin, 10785, Germany",NA,NA,NA,"Germany","Hydrogen Europe"
52.5083233,13.3943543,"SEEHG SECURING ENERGY FOR EUROPE HOLDING GMBH","MARKGRAFENSTR. 23, 10117, Berlin, Deutschland","MARKGRAFENSTR. 23","10117","BERLIN","Germany","Amadeus"
52.5071785,13.3279356,"NOW GMBH NATIONALE ORGANISATION WASSERSTOFF- UND BRENNSTOFFZELLENTECHNOLOGIE","FASANENSTR. 5, 10623, Berlin, Deutschland","FASANENSTR. 5","10623","BERLIN","Germany","Amadeus"
52.5050831,13.3323631,"GLOBAL ENERGY INTERCONNECTION RESEARCH INSTITUTE EUROPE GMBH","KANTSTR. 162, 10623, Berlin, Deutschland","KANTSTR. 162","10623","BERLIN","Germany","Amadeus"
52.503616,13.32865,"H2 NOW GMBH","KURFÜRSTENDAMM, 10719, Berlin, Deutschland","KURFÜRSTENDAMM","10719","BERLIN","Germany","Amadeus"
52.50254,13.316714,"GEG INTEGRATED SOLUTIONS GMBH","SCHLÜTERSTR., 10629, Berlin, Deutschland","SCHLÜTERSTR.","10629","BERLIN","Germany","Amadeus"
52.50213,13.377993,"CLEAN ENERGY PARTNERSHIP (CEP) E.V.","SCHÖNEBERGER STR., 10963, Berlin, Deutschland","SCHÖNEBERGER STR.","10963","BERLIN","Germany","Amadeus"
52.50076555,13.45204335,"APOLLINARIS BRANDS GMBH","STRALAUER ALLEE 4, 10245, Berlin, Deutschland","STRALAUER ALLEE 4","10245","BERLIN","Germany","Amadeus"
52.4982473,13.3096572,"BRAINFLEET HYDROGEN SOLUTIONS GMBH","DUISBURGER STR. 6, 10707, Berlin, Deutschland","DUISBURGER STR. 6","10707","BERLIN","Germany","Amadeus"
52.4968527,13.290607928,"VIGO BIOENERGY GMBH","KURFÜRSTENDAMM, 10711, Berlin, Deutschland","KURFÜRSTENDAMM","10711","BERLIN","Germany","Amadeus"
52.4892988,13.3313765,"RE:NAH2 GMBH","BUNDESALLEE 187, 10717, Sachsen, Deutschland","BUNDESALLEE 187","10717","BERLIN","Germany","Amadeus"
52.4824069,13.3567793,"H2 MOBILITY DEUTSCHLAND GMBH & CO. KG","EUREF-CAMPUS 10-11, 10829, Berlin, Deutschland","EUREF-CAMPUS 10-11","10829","BERLIN","Germany","Amadeus"
52.48,13.5,"H2 Station",NA,NA,NA,"Berlin","DE","www.H2stations.org"
52.47868,13.3473508,"SBT SERVICEGESELLSCHAFT FÜR DAS BERLINER TAXIGEWERBE GMBH","EBERSSTR. 60, 10827, Berlin, Deutschland","EBERSSTR. 60","10827","BERLIN","Germany","Amadeus"
52.4766288,13.3563938,"Agentur für Erneuerbare Energien e.V.","EUREF-Campus 16, 10829, Berlin, Germany","EUREF-Campus 16","10829","Berlin","Germany","Hydrogen Germany"
52.4753283,13.3628142,"Q ENERGY SOLUTIONS SE","HILDEGARD-KNEF-PLATZ 3, 10829, Berlin, Deutschland","HILDEGARD-KNEF-PLATZ 3","10829","BERLIN","Germany","Amadeus"
52.452636,13.299959,"PTX DEVELOPMENT GMBH","LIMONENSTR. 14, 12203, Berlin, Deutschland","LIMONENSTR. 14","12203","BERLIN","Germany","Amadeus"
52.45,13.43,"H2 Station",NA,NA,NA,"Berlin","DE","www.H2stations.org"
52.444597,13.309444,"DEUTSCHER WASSERSTOFF- UND BRENNSTOFFZELLEN-VERBAND (DWV) E.V.","MOLTKESTR. 42, 12203, Berlin, Deutschland","MOLTKESTR. 42","12203","BERLIN","Germany","Amadeus"
52.44143925,13.2864438014668,"Bundesanstalt für Materialforschung und prüfung (BAM)","Unter den Eichen 87, 12205 Berlin, Berlin Germany",NA,NA,NA,"Germany","Hydrogen Europe Research"
52.4386105,13.2391057,"inpro Innovationsgesellschaft für fortgeschrittene Produktionssysteme in der Fahrzeugindustrie mbH","Steinplatz 2, 10623, Berlin, Germany","Steinplatz 2","10623","Berlin","Germany","Hydrogen Germany"
52.43613105,13.206697117072,"RGR BAUWEGE CONCEPT GMBH","WALDSÄNGERPFAD, 14129, Berlin, Deutschland","WALDSÄNGERPFAD","14129","BERLIN","Germany","Amadeus"
52.4331354,13.5402384,"AXIOSUS ENERGY GMBH","FRANZ-EHRLICH-STR. 12, 12489, Berlin, Deutschland","FRANZ-EHRLICH-STR. 12","12489","BERLIN","Germany","Amadeus"
52.4330402,13.2947951,"Bundesanstalt für Materialforschung und -prüfung (BAM)","Unter den Eichen 87, 12205, Berlin, Germany","Unter den Eichen 87","12205","Berlin","Germany","Hydrogen Germany"
52.4313258,13.523673,"GRAFORCE HYDROCARB GMBH","JOHANN-HITTORF-STR. 8, 12489, Berlin, Deutschland","JOHANN-HITTORF-STR. 8","12489","BERLIN","Germany","Amadeus"
52.4313258,13.523673,"SYNREFORM GMBH","JOHANN-HITTORF-STR. 8, 12489, Berlin, Deutschland","JOHANN-HITTORF-STR. 8","12489","BERLIN","Germany","Amadeus"
52.4298168,13.5243869,"HPS HOME POWER SOLUTIONS AG","CARL-SCHEELE-STR. 16, 12489, Berlin, Deutschland","CARL-SCHEELE-STR. 16","12489","BERLIN","Germany","Amadeus"
52.4288824,13.5284808,"VIGORHYDROGEN AG","RUDOWER CHAUSSEE 29, 12489, Berlin, Deutschland","RUDOWER CHAUSSEE 29","12489","BERLIN","Germany","Amadeus"
52.4269855,13.4898344,"ADIBELLI MY WAY - OUR WAY UG (HAFTUNGSBESCHRÄNKT)","STUBENRAUCHSTR. 115, 12357, Berlin, Deutschland","STUBENRAUCHSTR. 115","12357","BERLIN","Germany","Amadeus"
52.4164926,13.3732228,"Technische Universität Berlin","Straße des 17. Juni 135, 10623, Berlin, Germany","Straße des 17. Juni 135","10623","Berlin","Germany","Hydrogen Germany"
52.3561275,4.8546568,"FLEXILISER B.V.","AMSTELVEENSEWEG 52 1, 1075 XH, Amsterdam, Niederlande","AMSTELVEENSEWEG 52 1","1075 XH","AMSTERDAM","Netherlands","Amadeus"
52.3556191,4.8697087,"OCI METHANOL MARKETING B.V.","WILLEMSPARKWEG 193, 1071 HA, Amsterdam, Niederlande","WILLEMSPARKWEG 193","1071 HA","AMSTERDAM","Netherlands","Amadeus"
52.3555213,4.8152661,"INERC BV","J.F. Ankersmitstraat 3, 1068 JX Amsterdam, Netherlands",NA,NA,NA,"Netherlands","Hydrogen Netherlands"
52.3451042,4.8438265,"Royal Netherlands Aerospace Centre (NLR)","Anthony Fokkerweg 2, 1059CM Amsterdam, North Holland Netherlands",NA,NA,NA,"Netherlands","Hydrogen Europe Research"
52.3405395,4.874589,"Teijin Holdings Europe","Would Trade Canter Tower B-9th floor, Strawinskylaan 925, Amsterdam, 1077XX, Netherlands",NA,NA,NA,"Netherlands","Hydrogen Europe"
52.340259,4.874937,"DTEK","Strawinskylaan 01531, Amsterdam, 1077Xx, Netherlands",NA,NA,NA,"Netherlands","Hydrogen Europe"
52.3400919,4.8725747,"AGC Chemicals Europe","Zuidplein 80, Amsterdam, 1077, Netherlands",NA,NA,NA,"Netherlands","Hydrogen Europe"
52.339963,4.872523,"LHYFE NETHERLANDS B.V.","ZUIDPLEIN 126 TOWER H, 15E, 1077 XV, Amsterdam, Niederlande","ZUIDPLEIN 126 TOWER H, 15E","1077 XV","AMSTERDAM","Netherlands","Amadeus"
52.335403,4.854832,"Clear Corporate Finance","Jachthavenweg, Amsterdam, 1081KM, Netherlands",NA,NA,NA,"Netherlands","Hydrogen Europe"
52.3084839,4.7593011,"MADOQUA VENTURES B.V.","SCHIPHOL BOULEVARD 127 WORLD TRADE, 1118 BG, Haarlemmermeer, Niederlande","SCHIPHOL BOULEVARD 127 WORLD TRADE","1118 BG","SCHIPHOL","Netherlands","Amadeus"
52.3059316,4.7529077,"REFUELS N.V.","EVERT VAN DE BEEKSTRAAT 1 THE BASE B, 1118 CL, Haarlemmermeer, Niederlande","EVERT VAN DE BEEKSTRAAT 1 THE BASE B","1118 CL","SCHIPHOL","Netherlands","Amadeus"
52.3014343,4.868706,"EVERFUEL NETHERLANDS B.V.","VAN HEUVEN GOEDHARTLAAN 13 D, 1181 LE, Amstelveen, Niederlande","VAN HEUVEN GOEDHARTLAAN 13 D","1181 LE","AMSTELVEEN","Netherlands","Amadeus"
52.2925828,4.7042353,"SHV Energy","Capellalaan 65, Hoofddorp, 2132JL, Netherlands",NA,NA,NA,"Netherlands","Hydrogen Europe"
52.289971,4.695866,"STELLANTIS","Taurus avenue 1, Hoofddorp, 2132 LS, Netherlands",NA,NA,NA,"Netherlands","Hydrogen Europe"
52.2841565,4.7971317,"JONGKIND B.V.","OOSTEINDERWEG 357, 1432 AX, Aalsmeer, Niederlande","OOSTEINDERWEG 357","1432 AX","AALSMEER","Netherlands","Amadeus"
52.27,4.7,"H2 Station",NA,NA,NA,"Hoofddrop/Schiphol","NL","www.H2stations.org"
52.26,4.69,"H2 Station",NA,NA,NA,"Rijsenhout","NL","www.H2stations.org"
52.1353889,4.3881452,"C.W. BUSSER PENSIOEN B.V.","ADMIRAAL HELFRICHLAAN 3, 2243 AG, Wassenaar, Niederlande","ADMIRAAL HELFRICHLAAN 3","2243 AG","WASSENAAR","Netherlands","Amadeus"
52.0936744,4.3130672,"POWER LINE UTILISING GRID B.V.","CAREL VAN BYLANDTLAAN 30, 2596 HR, S Gravenhage, Niederlande","CAREL VAN BYLANDTLAAN 30","2596 HR","'S-GRAVENHAGE","Netherlands","Amadeus"
52.0936744,4.3130672,"Shell","Carel van Bylandtlaan 30, Den Haag, 2596 HR, Netherlands",NA,NA,NA,"Netherlands","Hydrogen Europe"
52.0875561,4.3135367,"ORSTED HYDROGEN NETHERLANDS HOLDING B.V.","KONINGINNEGRACHT 19, 2514 AB, S Gravenhage, Niederlande","KONINGINNEGRACHT 19","2514 AB","'S-GRAVENHAGE","Netherlands","Amadeus"
52.0849977,4.3097817,"FOUNTAIN FUEL ONTWIKKELING B.V.","LOUIS COUPERUSPLEIN 52, 2514 HR, S Gravenhage, Niederlande","LOUIS COUPERUSPLEIN 52","2514 HR","'S-GRAVENHAGE","Netherlands","Amadeus"
52.083249,4.3080831,"Chiyoda Corporation Netherlands B.V.","Parkstraat 83, The Hague, 2514 JG, Netherlands",NA,NA,NA,"Netherlands","Hydrogen Europe"
52.083249,4.3080831,"CUSTOMIZED ENERGY SOLUTIONS EUROPE B.V.","PARKSTRAAT 83, 2514 JG, S Gravenhage, Niederlande","PARKSTRAAT 83","2514 JG","'S-GRAVENHAGE","Netherlands","Amadeus"
52.0822233,4.3257144,"Netherlands Organisation for Applied Scientific Research (TNO)","New Babylon, Anna van Buerenplein 1, 2595 DA The Hague, NL",NA,NA,NA,"Netherlands","Hydrogen Europe Research"
52.0821698,4.3255508,"Deerns","Anna van Buerenplein 21F, Den Haag, 2595 DA","Marquesweg 4","4462 HD","Goes","Netherlands","Hydrogen Netherlands"
52.078919,4.337313,"H2 Storage","Prinses Magrietplantsoen 33, Den Haag, 2595 AM","Edelgasstraat 260","2718 TC","Zoetermeer","Netherlands","Hydrogen Netherlands"
52.0775809,4.3368518,"Aramco Overseas Company B.V.","Prinses Beatrixlaan 35, AK Den Haag, 2595, Netherlands",NA,NA,NA,"Netherlands","Hydrogen Europe"
52.07,4.34,"H2 Station",NA,NA,NA,"The Hague","NL","www.H2stations.org"
52.06527,4.343878,"HYGRO ENERGY B.V.","SATURNUSSTRAAT 95 UNIT 2.14, 2516 AG, S Gravenhage, Niederlande","SATURNUSSTRAAT 95 UNIT 2.14","2516 AG","'S-GRAVENHAGE","Netherlands","Amadeus"
52.0584438,4.4814249,"T.EN NETHERLANDS B.V.","AFRIKAWEG 30, 2713 AW, Zoetermeer, Niederlande","AFRIKAWEG 30","2713 AW","ZOETERMEER","Netherlands","Amadeus"
52.0498074,4.4109547,"NASHEL B.V.","AMBACHTSHOF 6, 2632 BB, Pijnacker-Nootdorp, Niederlande","AMBACHTSHOF 6","2632 BB","NOOTDORP","Netherlands","Amadeus"
52.0483775,4.4073495,"BLUE FORCE ENERGY B.V.","KOPERSLAGER 18, 2631 RK, Pijnacker-Nootdorp, Niederlande","KOPERSLAGER 18","2631 RK","NOOTDORP","Netherlands","Amadeus"
52.0474364,4.4016606,"NITROGENCLEANUP B.V.","MIMOSADREEF 7, 2631 HZ, Pijnacker-Nootdorp, Niederlande","MIMOSADREEF 7","2631 HZ","NOOTDORP","Netherlands","Amadeus"
52.0462524,4.2359868,"R. BOON BEHEER B.V.","KARPERDAAL 32, 2553 PH, S Gravenhage, Niederlande","KARPERDAAL 32","2553 PH","'S-GRAVENHAGE","Netherlands","Amadeus"
52.0448646,4.3565837,"CONSCIOUS AEROSPACE B.V.","LAAN VAN YPENBURG 108, 2497 GC, S Gravenhage, Niederlande","LAAN VAN YPENBURG 108","2497 GC","'S-GRAVENHAGE","Netherlands","Amadeus"
52.0448646,4.3565837,"ZEROAVIA B.V.","LAAN VAN YPENBURG 108, 2497 GC, S Gravenhage, Niederlande","LAAN VAN YPENBURG 108","2497 GC","'S-GRAVENHAGE","Netherlands","Amadeus"
52.0428418,4.3303552,"Kiwa","Sir Winston Churchillln 273, Rijswijk, 2288Ea, Netherlands",NA,NA,NA,"Netherlands","Hydrogen Europe"
52.0428418,4.3303552,"Kiwa Expert B.V.","Sir Winston Churchilllaan 273, 2288 EA Rijswijk, Netherlands",NA,NA,NA,"Netherlands","Hydrogen Netherlands"
52.041634,4.3365166,"Teesing BV","Verrijn Stuartlaan 7, 2288 EK Rijswijk, Netherlands",NA,NA,NA,"Netherlands","Hydrogen Netherlands"
52.0355061,4.3176253,"WINTERSHALL DEA CARBON MANAGEMENT SOLUTIONS B.V.","BOGAARDPLEIN 47, 2284 DP, Rijswijk, Niederlande","BOGAARDPLEIN 47","2284 DP","RIJSWIJK ZH","Netherlands","Amadeus"
52.0339204,4.4989046,"Habonim Europe Industrial Valves and Actuators B.V.","Edelgasstraat 260, Zoetermeer, 2718 TC","Stadhoudersmolenweg 23","7317 AV","Apeldoorn","Netherlands","Hydrogen Netherlands"
52.0167463,4.3591234,"Zepp Solutions","Paardenmarkt 1, Delft, 2611 PA",NA,NA,NA,"Netherlands","Hydrogen Netherlands"
52.0163497,4.6857665,"MERIDIAN RESOURCES B.V.","MERIDIAAN 26, 2801 DA, Gouda, Niederlande","MERIDIAAN 26","2801 DA","GOUDA","Netherlands","Amadeus"
52.0121816,4.3457242,"ONESEA ENERGY B.V.","WESTPLANTSOEN 196, 2613 GS, Delft, Niederlande","WESTPLANTSOEN 196","2613 GS","DELFT","Netherlands","Amadeus"
52.0072493,4.3665415,"Emmett Green","Professor Snijdersstraat 2, 2628 RA Delft, Netherlands",NA,NA,NA,"Netherlands","Hydrogen Netherlands"
52.0021922,4.3734709,"Technische Universiteit Delft","Mekelweg 5, 2628 CD Delft, Paesi Bassi",NA,NA,NA,"Netherlands","Hydrogen Europe Research"
51.9988441,4.3736485,"TECHNOLOGY AND RELATED SCIENCES","Mekelweg 4, 2628 CD Delft, Netherlands",NA,NA,NA,"Netherlands","Hydrogen Europe"
51.9874484,4.3770571,"H2COMPOSITES B.V.","ROTTERDAMSEWEG 183 C, 2629 HD, Delft, Niederlande","ROTTERDAMSEWEG 183 C","2629 HD","DELFT","Netherlands","Amadeus"
51.9873926,4.3798078,"ABB E-MOBILITY GMBH","Heertjeslaan 6, 2629JG, 2629 JD Delft, Netherlands",NA,NA,NA,"Netherlands","Amadeus"
51.9664594,4.595731,"TOTAL ENERGY B.V.","HOOFDWEG-NOORD 9 T, 2913 LB, Zuidplas, Niederlande","HOOFDWEG-NOORD 9 T","2913 LB","NIEUWERKERK AD IJSSEL","Netherlands","Amadeus"
51.95,4.43,"H2 Station",NA,NA,NA,"Rotterdam","NL","www.H2stations.org"
51.95,4.56,"H2 Station",NA,NA,NA,"Capelle aan den IJsse","NL","www.H2stations.org"
51.9436775,4.1379495,"Europoort Rotterdam BP",NA,NA,NA,"Europoort Rotterdam","Netherlands","Hydrogen Production | European Hydrogen Observatory (europa.eu)"
51.9395733,4.1036219,"BP Rotterdam","D'ARCYWEG 76, 3198 NA, Rotterdam, Niederlande","D'ARCYWEG 76","3198 NA","EUROPOORT ROTTERDAM","Netherlands","Amadeus"
51.9311414,4.1698205,"Kuwait Petroleum Research and Technology","Moezelweg 251, Europoort RT, 3198 LS, Netherlands",NA,NA,NA,"Netherlands","Hydrogen Europe"
51.9298916,4.4059576,"Battolyser Systems B.V.","Conradstraat 4, Schiedam, 3125BC, Netherlands",NA,NA,NA,"Netherlands","Hydrogen Europe"
51.92779805,4.48862326925829,"MultiPLHY",NA,NA,NA,"Rotterdam","Netherlands","Hydrogen Production and Consumption Projects | European Hydrogen Observatory (europa.eu)"
51.9237047,4.471875,"CYTEC INDUSTRIES B.V.","WEENA 505 KAMER 30.10, 3013 AL, Rotterdam, Niederlande","WEENA 505 KAMER 30.10","3013 AL","ROTTERDAM","Netherlands","Amadeus"
51.9237047,4.471875,"NLHydrogen","Weena 505, kamer 30.06, Rotterdam, 3013 AL, Netherlands",NA,NA,NA,"Netherlands","Hydrogen Europe"
51.9237047,4.471875,"SHELL TRADING ROTTERDAM B.V.","WEENA 505, 3013 AL, Rotterdam, Niederlande","WEENA 505","3013 AL","ROTTERDAM","Netherlands","Amadeus"
51.9234803,4.4978105,"H2O SYSTEMS HOLLAND B.V.","OOSTPLEIN 275, 3061 CH, Rotterdam, Niederlande","OOSTPLEIN 275","3061 CH","ROTTERDAM","Netherlands","Amadeus"
51.9233545,4.4690485,"SWITCH2 B.V.","Stationsplein 45, 3013 AK Rotterdam, Netherlands",NA,NA,NA,"Netherlands","Amadeus"
51.9232371,4.473656,"AIR LIQUIDE INDUSTRIE B.V.","WEENA 312, 3012 NJ, Rotterdam, Niederlande","WEENA 312","3012 NJ","ROTTERDAM","Netherlands","Amadeus"
51.922661,4.4714705,"HES International B.V.","Weena 690, Rotterdam, 3012Cn, Netherlands",NA,NA,NA,"Netherlands","Hydrogen Europe"
51.9209668,4.456263,"HYDROGENIUM ENERGY SYSTEMS B.V.","HEEMRAADSSINGEL 30 A, 3021 DA, Rotterdam, Niederlande","HEEMRAADSSINGEL 30 A","3021 DA","ROTTERDAM","Netherlands","Amadeus"
51.9192709,4.1858595,"KEES IN 'T VEEN BEHEER B.V.","MOEZELWEG 151, 3198 LS, Rotterdam, Niederlande","MOEZELWEG 151","3198 LS","EUROPOORT ROTTERDAM","Netherlands","Amadeus"
51.918554,4.4908473,"RebelGroup","Wijnhaven 23, Rotterdam, 3011 WH","Duitslandlaan 1","9403 DL","Assen","Netherlands","Hydrogen Netherlands"
51.9182402,4.4850112,"Future Proof Shipping","Blaak 34, Rotterdam, 3011 TA, Netherlands",NA,NA,NA,"Netherlands","Hydrogen Europe"
51.9115557,4.4790886,"Stichting Projecten Binnenvaart","Vasteland 78, Rotterdam, 3011BN, Netherlands",NA,NA,NA,"Netherlands","Hydrogen Europe"
51.9089426,4.3764731,"TRANSHYDROGEN ALLIANCE B.V.","KAREL DOORMANWEG 5, 3115 JD, Schiedam, Niederlande","KAREL DOORMANWEG 5","3115 JD","SCHIEDAM","Netherlands","Amadeus"
51.9063606,4.5441931,"BRUSH HMA B.V.","SCHAARDIJK 372 5TH FLOOR, B, 2909 LA, Capelle Aan Den Ijssel, Niederlande","SCHAARDIJK 372 5TH FLOOR, B","2909 LA","CAPELLE AAN DEN IJSSEL","Netherlands","Amadeus"
51.9059614,4.3732316,"Viro Vlaardingen BV","Karel Doormanweg 27A, 3115 JD Schiedam, Netherlands",NA,NA,NA,"Netherlands","Hydrogen Netherlands"
51.9057772,4.4741822,"VOPAK","Westerlaan 16, Rotterdam, 3016Ck, Netherlands",NA,NA,NA,"Netherlands","Hydrogen Europe"
51.905422,4.2471328,"Rotterdam-Merseyweg Air Products",NA,NA,NA,"Merseyweg","Netherlands","Hydrogen Production | European Hydrogen Observatory (europa.eu)"
51.9048259,4.4847217,"Port of Rotterdam","Wilhelminakade 909, Rotterdam, 3072Ap, Netherlands",NA,NA,NA,"Netherlands","Hydrogen Europe"
51.904422,4.2471328,"Rotterdam-Merseyweg Air Products",NA,NA,NA,"Merseyweg","Netherlands","Hydrogen Production | European Hydrogen Observatory (europa.eu)"
51.900087,4.3991355,"LINDE PUERTO RICO B.V.","HAVENSTRAAT 23 A, 3115 HC, Schiedam, Niederlande","HAVENSTRAAT 23 A","3115 HC","SCHIEDAM","Netherlands","Amadeus"
51.8927319,4.3890747,"Rotterdam-Vondenlingenplaat-Pernis Shell",NA,NA,NA,"Pernis","Netherlands","Hydrogen Production | European Hydrogen Observatory (europa.eu)"
51.8907247,4.2931302,"Botlek-Rotterdam Air Liquide",NA,NA,NA,"Botlek","Netherlands","Hydrogen Production | European Hydrogen Observatory (europa.eu)"
51.8897319,4.3890747,"Rotterdam-Vondenlingenplaat-Pernis Shell",NA,NA,NA,"Pernis","Netherlands","Hydrogen Production | European Hydrogen Observatory (europa.eu)"
51.8897247,4.2931302,"Botlek-Rotterdam Air Liquide",NA,NA,NA,"Botlek","Netherlands","Hydrogen Production | European Hydrogen Observatory (europa.eu)"
51.8887593,4.4588021,"Verenigde Tankrederij BV","Nijmegenstraat 1, Rotterdam, 3087CD, Netherlands",NA,NA,NA,"Netherlands","Hydrogen Europe"
51.8887247,4.2931302,"Botlek-Rotterdam Air Liquide",NA,NA,NA,"Botlek","Netherlands","Hydrogen Production | European Hydrogen Observatory (europa.eu)"
51.8857247,4.2931302,"Botlek-Rotterdam Air Products",NA,NA,NA,"Botlek","Netherlands","Hydrogen Production | European Hydrogen Observatory (europa.eu)"
51.8847247,4.2931302,"Botlek-Rotterdam ExxonMobil Chemical",NA,NA,NA,"Botlek","Netherlands","Hydrogen Production | European Hydrogen Observatory (europa.eu)"
51.8817247,4.2931302,"Botlek-Rotterdam Nobian",NA,NA,NA,"Botlek","Netherlands","Hydrogen Production | European Hydrogen Observatory (europa.eu)"
51.8737095,4.6137099,"Hydrasun BV","Nikkelstraat 17a, Ridderkerk, 2984 AM","Archimedesweg 7","8912 AK","Leeuwarden","Netherlands","Hydrogen Netherlands"
51.8728332,4.6161959,"NEDERLANDSE INNOVATIE MAATSCHAPPIJ (NIM) B.V.","NIKKELSTRAAT 37, 2984 AM, Ridderkerk, Niederlande","NIKKELSTRAAT 37","2984 AM","RIDDERKERK","Netherlands","Amadeus"
51.87,4.26,"H2 Station",NA,NA,NA,"Rotterdam Botlek","NL","www.H2stations.org"
51.86,4.44,"H2 Station",NA,NA,NA,"Rhoon","NL","www.H2stations.org"
51.8499028,4.5243821,"MAROV B.V.","PUCCINISTRAAT 13, 2992 RK, Barendrecht, Niederlande","PUCCINISTRAAT 13","2992 RK","BARENDRECHT","Netherlands","Amadeus"
51.8493166,4.3052308,"ELECTRIC MOBILITY SERVICE EUROPE B.V.","EINSTEINWEG 18, 3208 KK, Nissewaard, Niederlande","EINSTEINWEG 18","3208 KK","SPIJKENISSE","Netherlands","Amadeus"
51.8322199,4.6145771,"H2 ECOSYSTEMS B.V.","DALTONSTRAAT 4, 3335 LR, Zwijndrecht, Niederlande","DALTONSTRAAT 4","3335 LR","ZWIJNDRECHT","Netherlands","Amadeus"
51.8284104,4.7760191,"IMC","Stationspark 625, Sliedrecht, 3364 DA",NA,NA,NA,"Netherlands","Hydrogen Netherlands"
51.818378,4.7080514,"KROHNE Nederland B.V.","Kerkeplaat 14, Dordrecht, 3313 LC",NA,NA,NA,"Netherlands","Hydrogen Netherlands"
51.81,4.5,"H2 Station",NA,NA,NA,"Heinenoord","NL","www.H2stations.org"
51.8,4.65,"H2 Station",NA,NA,NA,"Dordrecht","NL","www.H2stations.org"
51.7972706,4.6791509,"Leak Control Benelux","Leerparkpromenade 40, 3312 KW Dordrecht, Netherlands",NA,NA,NA,"Netherlands","Hydrogen Netherlands"
51.7795749,4.6160926,"DEKA NEDERLAND","SMIDSWEG 4 A, 3295 BV, Hoeksche Waard, Niederlande","SMIDSWEG 4 A","3295 BV","'S-GRAVENDEEL","Netherlands","Amadeus"
51.61,7.14,"H2 Station",NA,NA,NA,"Herten","DE","www.H2stations.org"
51.5827385,7.1500152,"ANWENDERZENTRUM H2HERTEN GMBH","HERNER STR. 21, 45699, Recklinghausen, Deutschland","HERNER STR. 21","45699","HERTEN","Germany","Amadeus"
51.5741487,7.02597404132636,"Westfälische Hochschule (WHS)","Neidenburger Str. 43, 45897 Gelsenkirchen, Germania",NA,NA,NA,"Germany","Hydrogen Europe Research"
51.5726925,7.1487562,"BLUE TOWER GMBH","DONCASTER-PLATZ 5, 45699, Recklinghausen, Deutschland","DONCASTER-PLATZ 5","45699","HERTEN","Germany","Amadeus"
51.57,7.15,"H2 Station",NA,NA,NA,"Herten","DE","www.H2stations.org"
51.569299,7.149069,"HYDROGENICS GMBH","ALBERT-EINSTEIN-ALLEE 24- 28, 45699, Recklinghausen, Deutschland","ALBERT-EINSTEIN-ALLEE 24- 28","45699","HERTEN","Germany","Amadeus"
51.56,7.17,"H2 Station",NA,NA,NA,"Herten","DE","www.H2stations.org"
51.54,-0.32,"H2 Station",NA,NA,NA,"Greenford","GB","www.H2stations.org"
51.5271084102522,6.7989294674231,"Trailblazer (Phase 1)",NA,NA,NA,"Oberhausen","Germany","Hydrogen Production and Consumption Projects | European Hydrogen Observatory (europa.eu)"
51.5244751,-0.1393762,"Efectis","307 Euston Road, London, NW1 3AD",NA,NA,NA,"United Kingdom","Hydrogen UK"
51.5244652,-0.141496,"BUBNEY ENERGY CENTRE LIMITED","6TH FLOOR 338 EUSTON ROAD, NW1 3BG, London NW1, Vereinigtes Königreich","6TH FLOOR 338 EUSTON ROAD","NW1 3BG","LONDON","United Kingdom","Amadeus"
51.5241117,-0.1341213,"UCL Electrochemical Innovation Lab","Department of Chemical Engineering, University College London, London, WC1E 7JE",NA,NA,NA,"United Kingdom","Hydrogen UK"
51.5223248,-0.1447784,"Conduit Ventures Limited","3-4 Devonshire St, London W1W 5DT, United Kingdom",NA,NA,NA,"United Kingdom","Hydrogen UK"
51.5213133,-0.0797590995429366,"HORSE HILL DEVELOPMENTS LTD","THE BROADGATE TOWER, 20 PRIMROSE STREET, EC2A 2EW, London EC2A, Vereinigtes Königreich","THE BROADGATE TOWER, 20 PRIMROSE STREET","EC2A 2EW","LONDON","United Kingdom","Amadeus"
51.5207651,7.0838411,"Unknown",NA,NA,NA,"Gelsenkirchen","Germany","Hydrogen Production | European Hydrogen Observatory (europa.eu)"
51.5207327,-0.0830148,"First Hydrogen","30 Crown Pl, London EC2A 4EB, United Kingdom",NA,NA,NA,"Kingdom","Hydrogen UK"
51.520422,-0.100566,"ANGLO AMERICAN CAPITAL AUSTRALIA LIMITED","17 CHARTERHOUSE STREET, EC1N 6RA, London EC1N, Vereinigtes Königreich","17 CHARTERHOUSE STREET","EC1N 6RA","LONDON","United Kingdom","Amadeus"
51.5188184,-0.0831719,"LCH Ventures","International House, 36-38 Cornhill, London EC3V 3NG, United Kingdom",NA,NA,NA,"Kingdom","Hydrogen UK"
51.5187651,7.0838411,"Unknown",NA,NA,NA,"Gelsenkirchen","Germany","Hydrogen Production | European Hydrogen Observatory (europa.eu)"
51.51872695,-0.105631590900942,"Anglo American","17 Charterhouse St, London, EC1N 6RA",NA,NA,NA,"United Kingdom","Hydrogen UK"
51.5184644,-0.155595559860321,"Emerson UK","Accurist House, 44 Baker St, London W1U 7AL, United Kingdom",NA,NA,NA,"Kingdom","Hydrogen UK"
51.5177622,-0.154428730200369,"SERICA ENERGY (UK) LIMITED","FIRST FLOOR 48 GEORGE STREET, W1U 7DY, London W1U, Vereinigtes Königreich","FIRST FLOOR 48 GEORGE STREET","W1U 7DY","LONDON","United Kingdom","Amadeus"
51.5161298,-0.1398736,"MORGAN LOVELL PLC","KENT HOUSE, 14-17 MARKET PLACE, W1W 8AJ, London W1W, Vereinigtes Königreich","KENT HOUSE, 14-17 MARKET PLACE","W1W 8AJ","LONDON","United Kingdom","Amadeus"
51.516024,-0.1440321,"Intertek Group Plc","33 Cavendish Square, London, W1G OPS, United Kingdom",NA,NA,NA,"United Kingdom","Hydrogen Europe"
51.516024,-0.1440321,"SUSGEN","33 Cavendish Square, London W1G 0PW, United Kingdom",NA,NA,NA,"Kingdom","Hydrogen UK"
51.5158684,-0.104424511980831,"JOHNSON MATTHEY UK HOLDINGS LIMITED","5TH FLOOR 25 FARRINGDON STREET, EC4A 4AB, London EC4A, Vereinigtes Königreich","5TH FLOOR 25 FARRINGDON STREET","EC4A 4AB","LONDON","United Kingdom","Amadeus"
51.5158564,-0.0847070366666618,"HYDROGEN UTOPIA INTERNATIONAL PLC","C/O LAYTONS LLP 3RD FLOOR PINNER, 105-108 OLD BROAD STREET, EC2N 1ER, London EC2N, Vereinigtes Königreich","C/O LAYTONS LLP 3RD FLOOR PINNER, 105-108 OLD BROAD STREET","EC2N 1ER","LONDON","United Kingdom","Amadeus"
51.51578425,-0.104109620297184,"GHD","10th Floor, 25 Farringdon St, London EC4A 4AB, United Kingdom",NA,NA,NA,"Kingdom","Hydrogen UK"
51.51578425,-0.104109620297184,"Johnson Matthey","5th Floor, 25 Farringdon Street, London, EC4A 4AB",NA,NA,NA,"United Kingdom","Hydrogen UK"
51.515782,-0.224129,"H2GO POWER LTD","84 Wood Ln, London W12, United Kingdom",NA,NA,NA,"Kingdom","Amadeus"
51.515713,-0.094869,"CURTIS, MALLET-PREVOST, COLT & MOSLE (FRANCE) LLP","99 GRESHAM STREET, EC2V 7NG, London EC2V, Vereinigtes Königreich","99 GRESHAM STREET","EC2V 7NG","LONDON","United Kingdom","Amadeus"
51.51556965,-0.0815110287180043,"STONY ENERGY STORAGE LTD","100 Bishopsgate, London EC2N 4AG, UK",NA,NA,NA,"United Kingdom","Amadeus"
51.5150131,-0.0908553,"Marubeni Europower","95 Gresham Street, London, EC2V 7AB",NA,NA,NA,"United Kingdom","Hydrogen UK"
51.5148161,-0.1235229,"Transitus Energy","71 - 75 Shelton Street, Covent Garden, London, WC2H 9JQ, United Kingdom",NA,NA,NA,"United Kingdom","Hydrogen UK"
51.514698,-0.087732,"Baker Botts (UK) LLP","41 Lothbury, London, EC2R 7HF",NA,NA,NA,"United Kingdom","Hydrogen UK"
51.5143313,-0.107070788363636,"Burges Salmon","One Glass Wharf, Bristol, BS2 0ZX Atria One, 144 Morrison Street, Edinburgh, EH3 8EX 6 New Street Square, London, EC4A 3BF",NA,NA,NA,"United Kingdom","Hydrogen UK"
51.5142534,-0.1117964,"Alcazar","7 Bell Yard, London, WC2A 2JR",NA,NA,NA,"United Kingdom","Hydrogen UK"
51.5141001,-0.0869235,"Hydrogen UK","RBS, PO Box 412, 62-63 Threadneedle St, London, EC2R 8LA, United Kingdom",NA,NA,NA,"United Kingdom","Hydrogen Europe"
51.51401785,7.1829353275049,"PMR TECH UG (HAFTUNGSBESCHRÄNKT)","HERZOGSTR. 18, 44651, Herne, Deutschland","HERZOGSTR. 18","44651","HERNE","Germany","Amadeus"
51.51339205,-0.115163601179238,"TUNUR (UK) LTD","Peachey & Co, 95 Aldwych, London, WC2B 4JF",NA,NA,NA,"United Kingdom","Amadeus"
51.513355,-0.0908549,"EVOLVIENT CAPITAL LIMITED","1 POULTRY, EC2R 8EJ, London EC2R, Vereinigtes Königreich","1 POULTRY","EC2R 8EJ","LONDON","United Kingdom","Amadeus"
51.513355,-0.0908549,"HYDROGENONE CAPITAL GROWTH PLC","1 Poultry, London EC2R 8EJ, United Kingdom",NA,NA,NA,"Kingdom","Amadeus"
51.5131982,-0.1251689,"RENEWABLE UK ASSOCIATION","THE CONDUIT 6 LANGLEY STREET, WC2H 9JA, London WC2H, Vereinigtes Königreich","THE CONDUIT 6 LANGLEY STREET","WC2H 9JA","LONDON","United Kingdom","Amadeus"
51.5119983,6.8288231,"PSL Technik GmbH","Im Erlengrund 35, 46149, Oberhausen, Germany","Im Erlengrund 35","46149","Oberhausen","Germany","Hydrogen Germany"
51.5117445,-0.0774102,"IOCL EXPLORATION AND PRODUCTION OMAN LIMITED","3RD FLOOR 5 LLOYDS AVENUE, EC3N 3AE, London EC3N, Vereinigtes Königreich","3RD FLOOR 5 LLOYDS AVENUE","EC3N 3AE","LONDON","United Kingdom","Amadeus"
51.5116972,-0.0826957,"Woodside Energy Ltd","1st Floor, Sackville House, 143-149 Fenchurch Street, London, EC3M 6BN, United Kingdom",NA,NA,NA,"United Kingdom","Hydrogen Europe"
51.5111283,-0.11878369635922,"Elgar Middleton","1 Lancaster Pl, London WC2E 7ED, United Kingdom",NA,NA,NA,"Kingdom","Hydrogen UK"
51.51105435,-0.0952337643949483,"SUMITOMO CORPORATION EUROPE","Vintners Place, 68 UPPER THAMES STREET, London, EC4V 3BJ, United Kingdom",NA,NA,NA,"United Kingdom","Hydrogen Europe"
51.5092422,-0.1409924,"Chariot Green Hydrogen Ltd.","19-21 Old Bond Street, London, W1S 4PX, United Kingdom",NA,NA,NA,"United Kingdom","Hydrogen Europe"
51.5076783,-0.1076635,"STOREGGA LIMITED","2ND FLOOR 1-2 HATFIELDS, SE1 9PG, London SE1, Vereinigtes Königreich","2ND FLOOR 1-2 HATFIELDS","SE1 9PG","LONDON","United Kingdom","Amadeus"
51.50761865,-0.136425094722721,"Renew Power Private Limited (ReNew)","""C/O Vistra (Uk) Ltd, 3rd Floor, 11-12 St. Jamess Square"", London, SW1Y 4LB, United Kingdom",NA,NA,NA,"United Kingdom","Hydrogen Europe"
51.50761865,-0.136425094722721,"Smiths Group plc","""4th Floor, 11-12 St Jamess Square"", London, SW1Y 4LB, United Kingdom",NA,NA,NA,"United Kingdom","Hydrogen Europe"
51.5071618,-0.0674954,"MOL","THOMAS MORE SQUARE 3, London, E1W 1WY, United Kingdom",NA,NA,NA,"United Kingdom","Hydrogen Europe"
51.50493215,-0.0470751248999932,"H2TRANSITION CAPITAL LLP","FLAT 5, PACIFIC WHARF, 165 ROTHERHITHE STREET, SE16 5QF, London SE16, Vereinigtes Königreich","FLAT 5, PACIFIC WHARF, 165 ROTHERHITHE STREET","SE16 5QF","LONDON","United Kingdom","Amadeus"
51.5043581,-0.0795489,"N-Gen Energy Solutions Limited","3 More London Riverside, London, SE1 2AQ.",NA,NA,NA,"United Kingdom","Hydrogen UK"
51.5038502,-0.116773363210453,"SHELL CHEMICALS U.K. LIMITED","SHELL CENTRE, YORK ROAD, SE1 7NA, London SE1, Vereinigtes Königreich","SHELL CENTRE, YORK ROAD","SE1 7NA","LONDON","United Kingdom","Amadeus"
51.5038193,-0.1000426,"PROTIUM GREEN SOLUTIONS LIMITED","UNIT 104 164-180 UNION STREET, SE1 0LH, London SE1, Vereinigtes Königreich","UNIT 104 164-180 UNION STREET","SE1 0LH","LONDON","United Kingdom","Amadeus"
51.5,7.05,"H2 Station",NA,NA,NA,"Essen","DE","www.H2stations.org"
51.49966305,-0.193045451884419,"VISION DIRECT EUROPE LTD","1 WRIGHTS LANE, W8 5RY, London W8, Vereinigtes Königreich","1 WRIGHTS LANE","W8 5RY","LONDON","United Kingdom","Amadeus"
51.498152,-0.142205,"GKN HYDROGEN LIMITED","2ND FLOOR NOVA NORTH, 11 BRESSENDEN PLACE, SW1E 5BY, London SW1E, Vereinigtes Königreich","2ND FLOOR NOVA NORTH, 11 BRESSENDEN PLACE","SW1E 5BY","LONDON","United Kingdom","Amadeus"
51.4971667,-0.1396282,"DOLLYMANS STORAGE LIMITED","4TH FLOOR 80 VICTORIA STREET, SW1E 5JL, London SW1E, Vereinigtes Königreich","4TH FLOOR 80 VICTORIA STREET","SW1E 5JL","LONDON","United Kingdom","Amadeus"
51.4971667,-0.1396282,"SALTHOLME SOUTH POWER LIMITED","4TH FLOOR 80 VICTORIA STREET, SW1E 5JL, London SW1E, Vereinigtes Königreich","4TH FLOOR 80 VICTORIA STREET","SW1E 5JL","LONDON","United Kingdom","Amadeus"
51.4967767,-0.1360237,"KENNOXHEAD WIND FARM LIMITED","5 HOWICK PLACE, SW1P 1WG, London SW1P, Vereinigtes Königreich","5 HOWICK PLACE","SW1P 1WG","LONDON","United Kingdom","Amadeus"
51.4967767,-0.1360237,"ORSTED","5 HOWICK PLACE, SW1P 1WG, London SW1P, Vereinigtes Königreich","5 HOWICK PLACE","SW1P 1WG","LONDON","United Kingdom","Amadeus"
51.4956292,-0.1460347,"CHRYSAOR NORTH SEA LIMITED","23 LOWER BELGRAVE STREET, SW1W 0NR, London SW1W, Vereinigtes Königreich","23 LOWER BELGRAVE STREET","SW1W 0NR","LONDON","United Kingdom","Amadeus"
51.495141,-0.273577293103448,"CB&I UK LIMITED","BUILDING 3, 566 CHISWICK HIGH ROAD, CHISWICK, W4 5YA, London W4, Vereinigtes Königreich","BUILDING 3, 566 CHISWICK HIGH ROAD, CHISWICK","W4 5YA","LONDON","United Kingdom","Amadeus"
51.4940084,-0.1481489,"HFI ENERGY SYSTEMS LIMITED","25 ECCLESTON PLACE, SW1W 9NF, London SW1W, Vereinigtes Königreich","25 ECCLESTON PLACE","SW1W 9NF","LONDON","United Kingdom","Amadeus"
51.49170025,-0.197317035714287,"HALIAN INTERNATIONAL LIMITED","33-34 SOHO SQUARE, W1D 3QU, London W1D, Vereinigtes Königreich","33-34 SOHO SQUARE","W1D 3QU","LONDON","United Kingdom","Amadeus"
51.4914175773825,6.72396950620628,"Carbon2Chem",NA,NA,NA,"Duisburg","Germany","Hydrogen Production | European Hydrogen Observatory (europa.eu)"
51.49112485,6.74327388712534,"Thyssenkrupp Steel","Kaiser-Wilhelm-Strasse 100, Duisburg, 47166, Germany",NA,NA,NA,"Germany","Hydrogen Europe"
51.489626,6.9662419,"Gas- und Wärme-Institut Essen e. V.","Hafenstr. 101, 45356, Essen, Germany","Hafenstr. 101","45356","Essen","Germany","Hydrogen Germany"
51.4888064,-0.167983360133215,"INEOS FLUOR HOLDINGS LIMITED","ANCHOR HOUSE, 15-19 BRITTEN STREET, SW33TY, London SW3, Vereinigtes Königreich","ANCHOR HOUSE, 15-19 BRITTEN STREET","SW33TY","LONDON","United Kingdom","Amadeus"
51.4878429,6.863308,"Unknown",NA,NA,NA,"Oberhausen","Germany","Hydrogen Production | European Hydrogen Observatory (europa.eu)"
51.4874424,-0.3129875,"BRITANNIA LIFT SERVICES (U.K.) LIMITED","10TH FLOOR VANTAGE, GREAT WEST ROAD, TW8 9AG, Brentford, Vereinigtes Königreich","10TH FLOOR VANTAGE, GREAT WEST ROAD","TW8 9AG","BRENTFORD","United Kingdom","Amadeus"
51.4818111,7.2196635,"Ruhr-Universität Bochum","Universitätsstr. 150, 44801, Bochum, Germany","Universitätsstr. 150","44801","Bochum","Germany","Hydrogen Germany"
51.4806846,-0.1111974,"BOSS Energy Consulting","101 Lincoln House, Kennington Park, 1 Brixton Road, Oval, London, SW9 6DE, United Kingdom",NA,NA,NA,"United Kingdom","Hydrogen Europe"
51.4776586,7.0352304,"Open Grid Europe GmbH","Kallenbergstr. 5, 45141, Essen, Germany","Kallenbergstr. 5","45141","Essen","Germany","Hydrogen Germany"
51.4776586,7.0352304,"RWE Power Aktiengesellschaft - Forschung und Entwicklung - Werkstoffe und Analytik, RWE Generation SE und RWE Renewables GmbH und RWE Supply and Trading GmbH","RWE Platz 2, 45141, Essen, Germany","RWE Platz 2","45141","Essen","Germany","Hydrogen Germany"
51.46877855,7.00596462027797,"Open Grid Europe","Kallenbergstraße 5, Essen, 45141, Germany",NA,NA,NA,"Germany","Hydrogen Europe"
51.4662007,7.0121738222576,"RWE Generation","RWE Platz 3, Essen, 45141, Germany",NA,NA,NA,"Germany","Hydrogen Europe"
51.4657429,7.0115983,"OHD OFFSHORE HYDROGEN DEVELOPMENT ONE GMBH","RWE PLATZ 4, 45141, Essen, Deutschland","RWE PLATZ 4","45141","ESSEN","Germany","Amadeus"
51.4656674,7.0129498,"GAS LINK LUBMIN GMBH","RWE PLATZ 6, 45141, Essen, Deutschland","RWE PLATZ 6","45141","ESSEN","Germany","Amadeus"
51.46257105,7.03642779999999,"CARBOTECH AC GMBH","ELISENSTR. 119, 45139, Essen, Deutschland","ELISENSTR. 119","45139","ESSEN","Germany","Amadeus"
51.4600436,7.0058763,"H2UB GmbH","Jakob-Funke-Platz 2, Essen, 45127, Germany",NA,NA,NA,"Germany","Hydrogen Europe"
51.4594252,-0.3066771,"Penspen","Water Lane 3, Richmond, Surrey, TW9 1TJ, United Kingdom",NA,NA,NA,"United Kingdom","Hydrogen Europe"
51.4559901,6.7463566,"PLUG POWER GERMANY GMBH","IM FREIHAFEN 6 A, 47138, Duisburg, Deutschland","IM FREIHAFEN 6 A","47138","DUISBURG","Germany","Amadeus"
51.45492,6.74451,"PLUG POWER EUROPE","Im Freihafen 8a, 47138 Duisburg, Germany",NA,NA,NA,"Germany","Amadeus"
51.450661,7.238199,"CARBON BRENNSTOFFHANDELS- UND TRANSPORTGESELLSCHAFT MBH","STIEPELER STR. 68 H, 44799, Bochum, Deutschland","STIEPELER STR. 68 H","44799","BOCHUM","Germany","Amadeus"
51.44988895,6.74296148196991,"Duisburger Hafen AG","Alte Ruhrorter Str. 42–52, Duisburg, 47119, Germany",NA,NA,NA,"Germany","Hydrogen Europe"
51.449417,7.013722,"Evonik","Rellinghauser str 1-11, Essen, 45128, Germany",NA,NA,NA,"Germany","Hydrogen Europe"
51.4436998,7.2750299,"Fraunhofer-Einrichtung für Energieinfrastrukturen und Geothermie IEG Bochum","Am Hochschulcampus 1 / IEG, 44801, Bochum, Germany","Am Hochschulcampus 1 / IEG","44801","Bochum","Germany","Hydrogen Germany"
51.44,6.74,"H2 Station",NA,NA,NA,"Duisburg","DE","www.H2stations.org"
51.44,6.95,"H2 Station",NA,NA,NA,"Mülheim an der Ruhr","DE","www.H2stations.org"
51.4379899,0.0733622,"GLOBAL ENERGY TECHNOLOGY LTD","Avery House, 8 Avery Hill Rd, London SE9 2BD, United Kingdom",NA,NA,NA,"Kingdom","Amadeus"
51.4377665,7.0055612,"IQONY GMBH","RÜTTENSCHEIDER STR., 45128, Essen, Deutschland","RÜTTENSCHEIDER STR.","45128","ESSEN","Germany","Amadeus"
51.4370971,7.0430603,"Uniper","Ruhrallee, Essen, 45136, Germany",NA,NA,NA,"Germany","Hydrogen Europe"
51.4362425,7.0029856,"COFERMIN CHEMICALS GMBH & CO. KG","ALFREDSTR. 61, 45130, Essen, Deutschland","ALFREDSTR. 61","45130","ESSEN","Germany","Amadeus"
51.4358345,7.0482503,"VOLTH2 ESSEN GMBH","RUHRALLEE 185, 45136, Nordrhein-Westfalen, Deutschland","RUHRALLEE 185","45136","ESSEN","Germany","Amadeus"
51.4301682,6.80153402585294,"Zentrum für Brennstoffzellen Technik GmbH (ZBT)","Carl-Benz-Straße 201, 47057 Duisburg, Germania",NA,NA,NA,"Germany","Hydrogen Europe Research"
51.43,6.78,"H2 Station",NA,NA,NA,"Duisburg","DE","www.H2stations.org"
51.43,6.87,"H2 Station",NA,NA,NA,"Mülheim","DE","www.H2stations.org"
51.43,7.05,"H2 Station",NA,NA,NA,"Essen","DE","www.H2stations.org"
51.4297023,7.01197399836736,"DECARB GMBH & CO. KG","ROSWITHASTR. 26, 45131, Essen, Deutschland","ROSWITHASTR. 26","45131","ESSEN","Germany","Amadeus"
51.42692375,-0.341632851521498,"National Physical Laboratory (NPL)","National Physical Laboratory Hampton Road, TW11 0LW London, England United Kingdom",NA,NA,NA,"Kingdom","Hydrogen Europe Research"
51.4253819,6.9946163,"E.ON","Brusseler Platz 1, Essen, 45131, Germany",NA,NA,NA,"Germany","Hydrogen Europe"
51.4170596,7.20161599528725,"AIR PRODUCTS GMBH","AN DER KOST 3, 45527, Ennepe-Ruhr, Deutschland","AN DER KOST 3","45527","HATTINGEN","Germany","Amadeus"
51.4152346,6.7945849,"Entwicklungszentrum für Schiffstechnik und Transportsysteme e.V.","Oststr. 77, 47057, Duisburg, Germany","Oststr. 77","47057","Duisburg","Germany","Hydrogen Germany"
51.41022655,7.25915653628133,"GPG GASE PARTNER GMBH","WITTENER STR. 166, 58456, Ennepe-Ruhr, Deutschland","WITTENER STR. 166","58456","WITTEN","Germany","Amadeus"
51.4084396,7.1919814,"AIR PRODUCTS HOLDINGS GMBH","HÜTTENSTR., 45527, Ennepe-Ruhr, Deutschland","HÜTTENSTR.","45527","HATTINGEN","Germany","Amadeus"
51.3812983,7.09781617337817,"VGBE ENERGY SERVICE GMBH","DEILBACHTAL 173, 45257, Essen, Deutschland","DEILBACHTAL 173","45257","ESSEN","Germany","Amadeus"
51.3783643,6.9228639,"Max-Planck-Institut für Chemische Energiekonversion","Stiftstr. 34-36, 45470, Mülheim an der Ruhr, Germany","Stiftstr. 34-36","45470","Mülheim an der Ruhr","Germany","Hydrogen Germany"
51.3572448,6.7090193,"Salzgitter Mannesmann Forschung GmbH Duisburg","Ehinger Str. 200, 47259, Duisburg, Germany","Ehinger Str. 200","47259","Duisburg","Germany","Hydrogen Germany"
51.3547878,6.6428946,"Unknown",NA,NA,NA,"Uerdingen","Germany","Hydrogen Production | European Hydrogen Observatory (europa.eu)"
51.34923585,7.11296984948882,"SCHMIDT, KRANZ & CO. GESELLSCHAFT MIT BESCHRÄNKTER HAFTUNG","HAUPTSTR. 123, 42555, Mettmann, Deutschland","HAUPTSTR. 123","42555","VELBERT","Germany","Amadeus"
51.34759875,6.83994981907554,"LUXFER GERMANY GMBH","Breitscheider Weg 117A, 40885 Ratingen, Germany",NA,NA,NA,"Germany","Amadeus"
51.3473367,6.5394484,"MESSER SE & CO. KGAA","Kleinewefersstraße 1, 47803 Krefeld, Germany",NA,NA,NA,"Germany","Amadeus"
51.3331205,6.5623343,"Zentrum für Brennstoffzellen-Technik GmbH","Carl-Benz-Str. 201, 47057, Duisburg, Germany","Carl-Benz-Str. 201","47057","Duisburg","Germany","Hydrogen Germany"
51.32658,6.9710401,"Max-Planck-Institut für Kohlenforschung","Kaiser-Wilhelm-Platz 1, 45470, Mülheim an der Ruhr, Germany","Kaiser-Wilhelm-Platz 1","45470","Mülheim an der Ruhr","Germany","Hydrogen Germany"
51.31,7.25,"H2 Station",NA,NA,NA,"Wuppertal","DE","www.H2stations.org"
51.3,6.92,"H2 Station",NA,NA,NA,"Ratingen","DE","www.H2stations.org"
51.293725,6.8666603,"DKV Mobility Services","Balcke-Dürr-Allee 3, Ratingen, 40882, Germany",NA,NA,NA,"Germany","Hydrogen Europe"
51.292438,6.8648169,"Fujifilm Europe GmbH","Balcke-Dürr-Allee 6, Ratingen, 40882, Germany",NA,NA,NA,"Germany","Hydrogen Europe"
51.29,7.26,"H2 Station",NA,NA,NA,"Wuppertal","DE","www.H2stations.org"
51.272523,7.206675,"CARDEX AUTOTEILE UND ZUBEHÖR GMBH","HÖHNE, 42275, Wuppertal, Deutschland","HÖHNE","42275","WUPPERTAL","Germany","Amadeus"
51.2677766,7.1629154336916,"BERGCHEMIE J. C. BRÖCKING & CO. GMBH","RUDOLFSTR. 14, 42285, Wuppertal, Deutschland","RUDOLFSTR. 14","42285","WUPPERTAL","Germany","Amadeus"
51.264018,7.1780374,"H2W",NA,NA,NA,"Wuppertal","Germany","Hydrogen Production | European Hydrogen Observatory (europa.eu)"
51.2527742,6.7633152,"ARKEMA GMBH","TERSTEEGENSTR. 28, 40474, Düsseldorf, Deutschland","TERSTEEGENSTR. 28","40474","DÜSSELDORF","Germany","Amadeus"
51.2520439,6.7818973,"KNAPSACK POWER GMBH & CO. KG","DERENDORFER ALLEE 2 A, 40476, Düsseldorf, Deutschland","DERENDORFER ALLEE 2 A","40476","DÜSSELDORF","Germany","Amadeus"
51.247092,6.775832,"AIR LIQUIDE INDUSTRIEGASE GMBH & CO. KG","HANS-BÖCKLER-STR., 40476, Düsseldorf, Deutschland","HANS-BÖCKLER-STR.","40476","DÜSSELDORF","Germany","Amadeus"
51.2459643,6.77292003739798,"Mitsubishi Heavy Industries","Kennedydamm 19, Düsseldorf, 40476, Germany",NA,NA,NA,"Germany","Hydrogen Europe"
51.2380348,6.8105055,"VDEh-Betriebsforschungsinstitut Gesellschaft mit beschränkter Haftung","Sohnstr. 69, 40237, Düsseldorf, Germany","Sohnstr. 69","40237","Düsseldorf","Germany","Hydrogen Germany"
51.23,7.14,"H2 Station",NA,NA,NA,"Wuppertal","DE","www.H2stations.org"
51.2265413,6.8167942,"GEORG PFORR - GEFO - VERWALTUNGS-GMBH","HOFFELDSTR. 104, 40235, Düsseldorf, Deutschland","HOFFELDSTR. 104","40235","DÜSSELDORF","Germany","Amadeus"
51.2254018,6.7763137,"Max-Planck-Institut für Eisenforschung GmbH","Max-Planck-Str. 1, 40237, Düsseldorf, Germany","Max-Planck-Str. 1","40237","Düsseldorf","Germany","Hydrogen Germany"
51.2234352,6.7879589,"ENAGIC EUROPE GMBH","IMMERMANNSTR. 33, 40210, Düsseldorf, Deutschland","IMMERMANNSTR. 33","40210","DÜSSELDORF","Germany","Amadeus"
51.2228252,6.7829655,"ADEKA EUROPE GMBH","BERLINER ALLEE 22, 40212, Düsseldorf, Deutschland","BERLINER ALLEE 22","40212","DÜSSELDORF","Germany","Amadeus"
51.221333,6.81341,"STADTWERKE DÜSSELDORF AG","HÖHERWEG, 40233, Düsseldorf, Deutschland","HÖHERWEG","40233","DÜSSELDORF","Germany","Amadeus"
51.2212354,6.77735881706053,"MKH VERWALTUNG AG","KÖNIGSALLEE, 40212, Städteregion Aachen, Deutschland","KÖNIGSALLEE","40212","DÜSSELDORF","Germany","Amadeus"
51.22,6.82,"H2 Station",NA,NA,NA,"Düsseldorf","DE","www.H2stations.org"
51.2165567,6.7579548,"SYNTHEC FUELS GMBH","NEUER ZOLLHOF 3, 40221, Düsseldorf, Deutschland","NEUER ZOLLHOF 3","40221","DÜSSELDORF","Germany","Amadeus"
51.21634985,6.69021307363739,"IPT GMBH","BÜDERICHER STR., 41460, Neuss, Deutschland","BÜDERICHER STR.","41460","NEUSS","Germany","Amadeus"
51.21634985,6.69021307363739,"MOS ENERGIE GMBH","BÜDERICHER STR., 41460, Neuss, Deutschland","BÜDERICHER STR.","41460","NEUSS","Germany","Amadeus"
51.2129363,6.747918,"ELEKTROLYSE MITTELDEUTSCHLAND GMBH","HOLZSTR. 6, 40221, Düsseldorf, Deutschland","HOLZSTR. 6","40221","DÜSSELDORF","Germany","Amadeus"
51.2129363,6.747918,"UNIPER SYSTEMSTABILITÄT GMBH","HOLZSTR. 6, 40221, Düsseldorf, Deutschland","HOLZSTR. 6","40221","DÜSSELDORF","Germany","Amadeus"
51.21137405,6.73685258340348,"Asahi Kasei Europe","Fringsstrasse 17, Dusseldorf, 40221, Germany",NA,NA,NA,"Germany","Hydrogen Europe"
51.2051079,6.7473776,"Uniper Hydrogen GmbH","Holzstraße 6, 40221, Düsseldorf, Germany","Holzstraße 6","40221","Düsseldorf","Germany","Hydrogen Germany"
51.2028185,6.775387,"ROOFSHARE GMBH","MEROWINGERSTR. 71, 40225, Düsseldorf, Deutschland","MEROWINGERSTR. 71","40225","DÜSSELDORF","Germany","Amadeus"
51.20107095,6.78310935,"YUAN SU AUTOMOTIV GMBH","ERNA-ECKSTEIN-STR. 14, 40225, Düsseldorf, Deutschland","ERNA-ECKSTEIN-STR. 14","40225","DÜSSELDORF","Germany","Amadeus"
51.200803,7.083132,"WOLTU ENERGY GMBH","DELLENFELD 25, 42653, Solingen, Deutschland","DELLENFELD 25","42653","SOLINGEN","Germany","Amadeus"
51.1933943,6.7108561,"LOHC INDUSTRIAL SOLUTIONS NRW GMBH","HAMMFELDDAMM 4 A, 41460, Neuss, Deutschland","HAMMFELDDAMM 4 A","41460","NEUSS","Germany","Amadeus"
51.19,6.84,"H2 Station",NA,NA,NA,"Düsseldorf","DE","www.H2stations.org"
51.167284,7.053786,"SONNE TANKEN GMBH","MANGENBERGER STR. 229, 42655, Solingen, Deutschland","MANGENBERGER STR. 229","42655","SOLINGEN","Germany","Amadeus"
51.0946851,6.8289112,"Unknown",NA,NA,NA,"Dormagen","Germany","Hydrogen Production | European Hydrogen Observatory (europa.eu)"
51.0936851,6.8289112,"Unknown",NA,NA,NA,"Dormagen","Germany","Hydrogen Production | European Hydrogen Observatory (europa.eu)"
51.0672984,6.8466247,"INEOS KÖLN GMBH","ALTE STR. 201, 50769, Köln, Deutschland","ALTE STR. 201","50769","KÖLN","Germany","Amadeus"
51.0459248,7.0192196,"Unknown",NA,NA,NA,"Leverkusen","Germany","Hydrogen Production | European Hydrogen Observatory (europa.eu)"
51.02,7,"H2 Station",NA,NA,NA,"Leverkusen","DE","www.H2stations.org"
50.986319,6.890169,"UNITED WORLD BUSINESS GMBH","BUTZWEILERHOF-ALLEE 3, 50829, Köln, Deutschland","BUTZWEILERHOF-ALLEE 3","50829","KÖLN","Germany","Amadeus"
50.957795,6.924832,"SOLARPARK BRONKOW LUCKAITZTAL GMBH","PARKGÜRTEL, 50823, Köln, Deutschland","PARKGÜRTEL","50823","KÖLN","Germany","Amadeus"
50.950375,6.875176,"HEE TECHNOLOGIES GMBH","AM WASSERMANN 28 A, 50829, Köln, Deutschland","AM WASSERMANN 28 A","50829","KÖLN","Germany","Amadeus"
50.94647,6.889589,"EVERFUEL GMBH","EUPENER STR. 165 RAUM1.03, 50933, Köln, Deutschland","EUPENER STR. 165 RAUM1.03","50933","KÖLN","Germany","Amadeus"
50.9463254,6.8896065,"Elogen GmbH","Eupener Str. 165, 50933, Köln, Germany","Eupener Str. 165","50933","Köln","Germany","Hydrogen Austria"
50.9406805,6.8907686,"STERIS DEUTSCHLAND GMBH","EUPENER STR. 70, 50933, Köln, Deutschland","EUPENER STR. 70","50933","KÖLN","Germany","Amadeus"
50.938531,6.9602786,"Unknown",NA,NA,NA,"Cologne","Germany","Hydrogen Production | European Hydrogen Observatory (europa.eu)"
50.938361,6.959974,"TÜV Rheinland Industrie Service GmbH","Am Grauen Stein, 51105, Köln, Germany","Am Grauen Stein","51105","Köln","Germany","Hydrogen Germany"
50.937531,6.9602786,"Unknown",NA,NA,NA,"Cologne","Germany","Hydrogen Production | European Hydrogen Observatory (europa.eu)"
50.9359341,6.940181,"MRS ENERGY INTERNATIONAL GMBH","RUDOLFPLATZ 3, 50674, Köln, Deutschland","RUDOLFPLATZ 3","50674","KÖLN","Germany","Amadeus"
49.055523,2.034128,"Burckhardt Compression France","21/23 rue du Petit Albi 95800 Cergy",NA,NA,NA,"France","Hydrogen France"
49.04882,2.195279,"Atlas Copco","14 avenue Louis Blériot  95740 Frépillon",NA,NA,NA,"France","Hydrogen France"
49.0435631,2.0331125,"COGNE FRANCE","16 rue de la patelle-bp-80119- 95613 Cergy Pontoise",NA,NA,NA,"France","Hydrogen France"
49.03,2.06,"H2 Station",NA,NA,NA,"Cergy Pontoise","FR","www.H2stations.org"
49.0267496,2.1879396,"SERGI TRANSFORMER PROTECTOR","48 AVENUE DES CHATAIGNIERS, 95150, Val-d'Oise, Frankreich","48 AVENUE DES CHATAIGNIERS","95150","TAVERNY","France","Amadeus"
49.025949,2.106304,"ROLLS-ROYCE SOLUTIONS FRANCE","8 10 IMMEUBLE COLORADO, 8 RUE ROSA LUXEMBURG, 95610, Val-d'Oise, Frankreich","8 10 IMMEUBLE COLORADO, 8 RUE ROSA LUXEMBURG","95610","ERAGNY","France","Amadeus"
49.02,2.18,"H2 Station",NA,NA,NA,"Beauchamp","FR","www.H2stations.org"
49.014421,2.076547,"ENERTRAG H2","9 MAIL GAY LUSSAC, 95000, Val-d'Oise, Frankreich","9 MAIL GAY LUSSAC","95000","NEUVILLE SUR OISE","France","Amadeus"
49.01,2.61,"H2 Station",NA,NA,NA,"Roissy-en--France","FR","www.H2stations.org"
49.009606,2.554942,"Groupe ADP","1 rue de France 93290 Tremblay-en-France",NA,NA,NA,"France","Hydrogen France"
48.9950492,1.9322802,"SAFRAN Group","Rue Pierre Curie 61, PLAISIR Cedex, BP 1 78373, France",NA,NA,NA,"France","Hydrogen Europe"
48.9906431,2.5900593,"Station de recharge Hydrogène HysetCo Roissy CDG","Parking PW, route du, 77290 Mitry-Mory, France",NA,NA,NA,"France",NA
48.99,2.52,"H2 Station",NA,NA,NA,"Tremblay-en-France","FR","www.H2stations.org"
48.987572,2.387014,"JCB EURO SERVICES","3 RUE DU VIGNOLLE, 95200, Val-d'Oise, Frankreich","3 RUE DU VIGNOLLE","95200","SARCELLES","France","Amadeus"
48.98,2.29,"H2 Station",NA,NA,NA,"Soisy-sous-Montmorency","FR","www.H2stations.org"
48.970462,2.306688,"CKC ETERNAL ENERGY","44 RUE DU GENERAL DE GAULLE, 95880, Val-d'Oise, Frankreich","44 RUE DU GENERAL DE GAULLE","95880","ENGHIEN LES BAINS","France","Amadeus"
48.96453,2.538206,"Groupe Petit Forestier","11 route de Tremblai 93420 Villepinte",NA,NA,NA,"France","Hydrogen France"
48.94938,2.260613,"ETNA INDUSTRIE","8 rue grande ceinture 95100 Argenteuil",NA,NA,NA,"France","Hydrogen France"
48.94,2.43,"H2 Station",NA,NA,NA,"Paris","FR","www.H2stations.org"
48.938985,2.176967,"Tuyaux Flexibles Rudolph","1 à 15 rue du Fiant 78500 Sartrouville",NA,NA,NA,"France","Hydrogen France"
48.937581,2.301857,"EXIDE TECHNOLOGIES SAS","5 ALLEE DES PIERRES MAYETTES, 92230, Hauts-de-Seine, Frankreich","5 ALLEE DES PIERRES MAYETTES","92230","GENNEVILLIERS","France","Amadeus"
48.930178,2.342297,"Station de recharge Hydrogène HysetCo Coubertin","22 Av. Dode de la Brunerie, 75016 Paris, France",NA,NA,NA,"France","Amadeus"
48.9286312,2.34392641870438,"HysetCo","103 Rue Charles Michels, 93200 Saint-Denis, France","95 RUE CHARLES MICHELS","93200","ST DENIS","France","Hydrogen France"
48.9286312,2.34392641870438,"STEP-HYPE","103 rue Charles Michels 93200 Saint Denis",NA,NA,NA,"France","Hydrogen France"
48.924893,2.403701,"DEMGY SPN","75 rue du rateau 93120 La Courneuve",NA,NA,NA,"France","Hydrogen France"
48.92062,2.355079,"Siemens Energy France","40 avenue des fruitiers 93527 Saint-Denis Cedex",NA,NA,NA,"France","Hydrogen France"
48.9184799,2.3515454,"SNCF 2","Place Aux étoiles 2, La Plaine Saint-Denis, 93210, France",NA,NA,NA,"France","Hydrogen Europe"
48.9166573,2.3093804,"VDN H2","4 avenue Laurent Cély 92600 ASNIERES SUR SEINE",NA,NA,NA,"France","Hydrogen France"
48.9166573,2.3093804,"VENTS DU NORD","TOUR D ASNIERES HALL D, 4 AVENUE LAURENT CELY, 92600, Hauts-de-Seine, Frankreich","TOUR D ASNIERES HALL D, 4 AVENUE LAURENT CELY","92600","ASNIERES SUR SEINE","France","Amadeus"
48.914934,2.330397,"ALSTOM France","48 rue Albert Dhalenne 93482 Saint-Ouen-sur-Seine",NA,NA,NA,"France","Hydrogen France"
48.912395,2.331462,"Région Ile-de-France","2, rue Simone Veil 93400 Saint-Ouen",NA,NA,NA,"France","Hydrogen France"
48.910935,2.34403,"BOSCH France","32 avenue Michelet 93400 Saint Ouen sur Seine",NA,NA,NA,"France","Hydrogen France"
48.9086455,2.2295618,"ARKEMA FRANCE","420 RUE D ESTIENNE D ORVES, 92700, Hauts-de-Seine, Frankreich","420 RUE D ESTIENNE D ORVES","92700","COLOMBES","France","Amadeus"
48.908478,2.212569,"SPAC","Immeuble Axe Seine – 1 rue du 1er mai 92752 Nanterre Cedex",NA,NA,NA,"France","Hydrogen France"
48.9077068,2.232585,"Gazel Energie","9 rue du débarcadère 92700 Colombes",NA,NA,NA,"France","Hydrogen France"
48.906533,2.263986,"GRTgaz","Immeuble Bora, 6 rue Raoul Nordling 92270 BOIS-COLOMBES",NA,NA,NA,"France","Hydrogen France"
48.9059703,2.2385448,"Hyundai France","71 boulevard National La Garenne Colombes 92250 La Garenne Colombes",NA,NA,NA,"France","Hydrogen France"
48.905715,2.264213,"LHYMO","12 RUE RAOUL NORDLING, 92270, Hauts-de-Seine, Frankreich","12 RUE RAOUL NORDLING","92270","BOIS COLOMBES","France","Amadeus"
48.905715,2.264213,"STORENGY","Rue Raoul Nordling 12, Bois-Colombes, 92270, France",NA,NA,NA,"France","Hydrogen Europe"
48.903173,2.313523,"RWE Renouvelables","50 rue Madame de Sanzillon  92110 Clichy",NA,NA,NA,"France","Hydrogen France"
48.9026882,2.0192126,"Kanda Consulting SAS","7 Ruelle du Lavoir  78240 AIGREMONT",NA,NA,NA,"France","Hydrogen France"
48.9022393,2.3695304,"AIR PRODUCTS France","BAT 221 PARC DES PORTES PARIS BAT 270, 45 AVENUE VICTOR HUGO, 93300, Seine-Saint-Denis, Frankreich","BAT 221 PARC DES PORTES PARIS BAT 270, 45 AVENUE VICTOR HUGO","93300","AUBERVILLIERS","France","Amadeus"
48.901444,2.268274,"ITM Power France","18 rue Franklin 92400 Courbevoie",NA,NA,NA,"France","Hydrogen France"
48.9,2.36,"H2 Station",NA,NA,NA,"Saint-Denis","FR","www.H2stations.org"
48.8971044,2.2266324,"VINCI SA","1973 Boulevard de la Défense, CS 10268, Nanterre, 92757, France",NA,NA,NA,"France","Hydrogen Europe"
48.896916,2.229278,"VINCI ENERGIES","2169 Bd de la Défense, 92000 Nanterre",NA,NA,NA,"France","Hydrogen France"
48.8967499,2.2383901,"Keolis","34 Avenue Léonard De Vinci, Courbevoie, F-92400, France",NA,NA,NA,"France","Hydrogen Europe"
48.896639,2.22859,"TECHNIP ENERGIES FRANCE","IMMEUBLE ORIGINE, 2126 BOULEVARD DE LA DEFENSE, 92000, Hauts-de-Seine, Frankreich","IMMEUBLE ORIGINE, 2126 BOULEVARD DE LA DEFENSE","92000","NANTERRE","France","Amadeus"
48.896639,2.22859,"TechnipEnergies","2126 Bd de la Défense CS 10266, 92000 Nanterre, France",NA,NA,NA,"France","Hydrogen France"
48.8963295,2.2847294,"OPmobility","Rue Paul Vaillant Couturier 42, Levallois-Perret Cedex, 92593, France",NA,NA,NA,"France","Hydrogen Europe"
48.8963295,2.2847294,"PLASTIC OMNIUM","42 rue Paul Vaillant-Couturier 92593 LEVALLOIS-PERRET",NA,NA,NA,"France","Hydrogen France"
48.895691,2.2390301,"HYNAMICS","8 AVENUE DE L ARCHE, 92400, Hauts-de-Seine, Frankreich","8 AVENUE DE L ARCHE","92400","COURBEVOIE","France","Amadeus"
48.89559,2.239661,"ENGIE SOLUTIONS H2","FAUBOURG DE L ARCHE, 1 PLACE SAMUEL DE CHAMPLAIN, 92400, Hauts-de-Seine, Frankreich","FAUBOURG DE L ARCHE, 1 PLACE SAMUEL DE CHAMPLAIN","92400","COURBEVOIE","France","Amadeus"
48.89559,2.239661,"Equans France","1 Place Samuel Champlain 92400 COURBEVOIE",NA,NA,NA,"France","Hydrogen France"
48.89559,2.239661,"HYPORT","FAUBOURG DE L ARCHE, 1 PLACE SAMUEL DE CHAMPLAIN, 92400, Hauts-de-Seine, Frankreich","FAUBOURG DE L ARCHE, 1 PLACE SAMUEL DE CHAMPLAIN","92400","COURBEVOIE","France","Amadeus"
48.8949394,2.2914384,"CCI France - Réseau Chambre de Commerce et d'Industrie","8-10 Rue Pierre Brossolette, 92300 Levallois-Perret, France",NA,NA,NA,"France","Hydrogen France"
48.894598,2.235605,"TRAPIL","2-3 Cr du Triangle, 92800 Puteaux, France",NA,NA,NA,"France","Hydrogen France"
48.894244,2.236518,"Bureau Veritas Exploitation","Le triangle de l'Arche, 8 cours du triangle 92937 La Défense Cedex",NA,NA,NA,"France","Hydrogen France"
48.894027,2.284354,"Hynamics - Groupe EDF","Carré Vert - rue Kléber 92300 Levallois-Perret",NA,NA,NA,"France","Hydrogen France"
48.894014,2.283893,"Hynamics (EDF)","Rue Kleber 45, LEVALLOIS PERRET, 92300, France",NA,NA,NA,"France","Hydrogen Europe"
48.89385,2.237727,"Ufip Énergies et Mobilités","Les collines de l'Arche - Opéra C 76 route de la Demi-Lune 92800 Puteaux",NA,NA,NA,"France","Hydrogen France"
48.8934298,2.4129427,"BERIM","149 avenue Jean Lolive 93695 Pantin",NA,NA,NA,"France","Hydrogen France"
48.892689,2.242977,"MASSHYLIA HYDROGEN","LA DEFENSE 6, 2 PLACE JEAN MILLIER, 92400, Hauts-de-Seine, Frankreich","LA DEFENSE 6, 2 PLACE JEAN MILLIER","92400","COURBEVOIE","France","Amadeus"
48.892689,2.242977,"TOTALENERGIES EP COLOMBIE","2 PLACE JEAN MILLIER, 92400, Hauts-de-Seine, Frankreich","2 PLACE JEAN MILLIER","92400","COURBEVOIE","France","Amadeus"
48.892275,2.244325,"MAZARS","61 rue Henri Regnault 92400 Courbevoie - France",NA,NA,NA,"France","Hydrogen France"
48.892065,2.232525,"SHELL FRANCE","11 13 TOUR PACIFIC, 11 COURS VALMY, 92800, Hauts-de-Seine, Frankreich","11 13 TOUR PACIFIC, 11 COURS VALMY","92800","PUTEAUX","France","Amadeus"
48.891914,2.25262,"AIRE NOUVELLE","49 RUE LOUIS BLANC, 92400, Hauts-de-Seine, Frankreich","49 RUE LOUIS BLANC","92400","COURBEVOIE","France","Amadeus"
48.8916913,2.1678667,"HYDROGENE NATUREL","31 RUE RAYMOND QUENEAU, 92500, Hauts-de-Seine, Frankreich","31 RUE RAYMOND QUENEAU","92500","RUEIL MALMAISON","France","Amadeus"
48.8913322,2.3417503,"Avere France","112 quater rue Marcadet 75018 Paris",NA,NA,NA,"France","Hydrogen France"
48.890891,2.172649,"Schneider Electric","35 rue Joseph Monier 92500 Ruel-Malmaison",NA,NA,NA,"France","Hydrogen France"
48.889879,2.254564,"APAVE","6 rue du Général Audran 92400 Courbevoie",NA,NA,NA,"France","Hydrogen France"
48.889558,2.252382,"SUEZ","Tour CB21 - 16 Place de l'Iris 92400 Paris La Défense",NA,NA,NA,"France","Hydrogen France"
48.889323,2.2513,"Bureau Veritas Marine & offshore","Tour Alto, 4 place des saisons, Courbevoie, 92400, France",NA,NA,NA,"France","Hydrogen Europe"
48.88927,2.303582,"France Nouvelles Energies","40 rue Philibert Delorme 75017 Paris",NA,NA,NA,"France","Hydrogen France"
48.888885,2.08952,"RETTENMAIER FRANCE SARL","20 Q RUE SCHNAPPER, 78100, Yvelines, Frankreich","20 Q RUE SCHNAPPER","78100","ST GERMAIN EN LAYE","France","Amadeus"
48.888873,2.1664323,"Vinci Construction Grands Projets","5 cours Ferdinand de Lesseps 92500 Rueil-Malmaison",NA,NA,NA,"France","Hydrogen France"
48.888829,2.234133,"LOXAM","Rue Félix Pyat 92043 Puteaux La Défense",NA,NA,NA,"France","Hydrogen France"
48.888558,2.12951,"Dream Energy","52 avenue Georges Clémenceau 78110 Le Vesinet",NA,NA,NA,"France","Hydrogen France"
48.8883958,2.1708301,"Blue Spirit Aero","11 rue Amédée Bollée 92500 Rueil-Malmaison",NA,NA,NA,"France","Hydrogen France"
48.888318,2.245292,"GULF AFRICA PETROLEUM CORPORATION","24 COURS MICHELET, 92800, Hauts-de-Seine, Frankreich","24 COURS MICHELET","92800","PUTEAUX","France","Amadeus"
48.888318,2.245292,"TOTALENERGIES MARKETING SERVICES","TOUR TOTAL, 24 COURS MICHELET, 92800, Hauts-de-Seine, Frankreich","TOUR TOTAL, 24 COURS MICHELET","92800","PUTEAUX","France","Amadeus"
48.887919,2.244068,"ALDER HOLDINGS SAS","23 27 TOUR DEFENSE PLAZA, 23 RUE DELARIVIERE LEFOULLON, 92800, Hauts-de-Seine, Frankreich","23 27 TOUR DEFENSE PLAZA, 23 RUE DELARIVIERE LEFOULLON","92800","PUTEAUX","France","Amadeus"
48.887341,2.216535,"Faurecia, a company of Forvia","Rue Hennape 2, Nanterre, 92000, France",NA,NA,NA,"France","Hydrogen Europe"
48.8869625,2.2431841,"GESIP","1, rue du Général Leclerc – 92800 PUTEAUX",NA,NA,NA,"France","Hydrogen France"
48.8869625,2.2431841,"SPEGNN","1 rue du Général Leclerc, 92800 PUTEAUX",NA,NA,NA,"France","Hydrogen France"
48.8867489,2.165228,"GEOMETHANE","2 Rue des Martinets, 92500 Rueil-Malmaison, France",NA,NA,NA,"France","Hydrogen France"
48.8867489,2.165228,"GEOSEL MANOSQUE","2 RUE DES MARTINETS, 92500, Hauts-de-Seine, Frankreich","2 RUE DES MARTINETS","92500","RUEIL MALMAISON","France","Amadeus"
48.8866288,2.2445769,"Association Française des Gaz Comprimés","14 rue de la République - Le Diamant A 92800 Puteaux",NA,NA,NA,"France","Hydrogen France"
48.8864464,2.2976787,"BCTG Avocats","14 avenue Gourgaud 75017 Paris",NA,NA,NA,"France","Hydrogen France"
48.886425,2.251741,"Coénove","8 Terrasse Bellini 92800 Puteaux",NA,NA,NA,"France","Hydrogen France"
48.8845182,2.247274,"EVOLEN","13 Rue Jean Jaurès, 92800 Puteaux, France",NA,NA,NA,"France","Hydrogen France"
48.8840622,2.2909643,"SWIFT","22 rue Vernier 75017 Paris",NA,NA,NA,"France","Hydrogen France"
48.8837077,2.2944341,"VASCO PARTNERS","142 boulevard Pereire 75017 Paris",NA,NA,NA,"France","Hydrogen France"
48.8833602,2.2687767,"Terega","8 rue de l 'Hôtel de Ville 92200 NEUILLY SUR SEINE",NA,NA,NA,"France","Hydrogen France"
48.883035,2.272281,"HY 4","20 B RUE LOUIS PHILIPPE, 92200, Hauts-de-Seine, Frankreich","20 B RUE LOUIS PHILIPPE","92200","NEUILLY SUR SEINE","France","Amadeus"
48.882569,2.435193,"LEAU LAVIE","D32 TROISIEME ETAGE, 94 AV DU DOCTEUR DAVID ROSENFELD, 93230, Seine-Saint-Denis, Frankreich","D32 TROISIEME ETAGE, 94 AV DU DOCTEUR DAVID ROSENFELD","93230","ROMAINVILLE","France","Amadeus"
48.8818615,2.3304162,"Borea","16 rue ballu 75009 Paris",NA,NA,NA,"France","Hydrogen France"
48.8815525,2.2664462,"Spie Batignolles","8 rue Victor Noir 92521 Neuilly-sur-Seine Cedex",NA,NA,NA,"France","Hydrogen France"
48.8814558,2.312079,"Kalliopé","98 Boulevard Malesherbes 75017 Paris",NA,NA,NA,"France","Hydrogen France"
48.880817,2.370548,"Wellington","170 Boulevard de la Villette 75019 Paris",NA,NA,NA,"France","Hydrogen France"
48.8795691,2.3484703,"GRDF","6 rue Condorcet 75009 Paris",NA,NA,NA,"France","Hydrogen France"
48.879218,2.3248498,"HOPIUM","43 RUE DE LIEGE, 75008, Paris, Frankreich","43 RUE DE LIEGE","75008","PARIS","France","Amadeus"
48.8791294,2.1660008,"Axens","89, bd Franklin Roosevelt 92508 Rueil-Malmaison – France",NA,NA,NA,"France","Hydrogen France"
48.8788451,2.3132154,"SIGEIF","64 bis rue de Monceau  75008 Paris",NA,NA,NA,"France","Hydrogen France"
48.8781195,2.2320262,"MOBILIANS","50 rue Rouget de Lisle 92158 SURESNES CEDEX",NA,NA,NA,"France","Hydrogen France"
48.8777159,2.3040221,"AIP","4 avenue Hoche 75008 Paris",NA,NA,NA,"France","Hydrogen France"
48.8775524,2.328086,"NHOA","28 RUE DE LONDRES, 75009, Paris, Frankreich","28 RUE DE LONDRES","75009","PARIS","France","Amadeus"
48.877225,2.1728806,"IFP School","228-232 avenue Napoléon Bonaparte 92500 Rueil Malmaison",NA,NA,NA,"France","Hydrogen France"
48.877088,2.3138703,"KALLISTA BDR","18 RUE TREILHARD, 75008, Paris, Frankreich","18 RUE TREILHARD","75008","PARIS","France","Amadeus"
48.876731,2.29747,"EIFER","22-30 avenue de Wagram 75008 PARIS, FRANCE",NA,NA,NA,"France","Hydrogen France"
48.8766026,2.1736995,"IFP Energies Nouvelles (IFPEN)","1-4 Av. du Bois Préau 192500 Rueil-Malmaison, Francia",NA,NA,NA,"France","Hydrogen Europe Research"
48.8766026,2.1736995,"IFPEN","Etablissement de Paris : 1 à 4 avenue de Bois Préau - 92852 Rueil Malmaison Cedex / Etablissement de Lyon : Rond-point de l'échangeur de Solaize - BP 3 - 69360 Solaize",NA,NA,NA,"France","Hydrogen France"
48.8760373,2.3297775,"HYXOS","80, rue Saint Lazare, 75009 Paris",NA,NA,NA,"France","Hydrogen France"
48.8760373,2.3297775,"INTHY DEVELOPPEMENT","80 RUE SAINT LAZARE, 75009, Paris, Frankreich","80 RUE SAINT LAZARE","75009","PARIS","France","Amadeus"
48.8760373,2.3297775,"JUSTY INGENIERIE ENERGIES","80 RUE SAINT LAZARE, 75008, Paris, Frankreich","80 RUE SAINT LAZARE","75008","PARIS 08","France","Amadeus"
48.8759634,2.3084421,"Norton Rose Fulbright","40 rue de Courcelles 75008 Paris",NA,NA,NA,"France","Hydrogen France"
48.8759316,2.3303682,"ARTELYS SAS","81 rue Saint Lazare, Paris, 75009, France",NA,NA,NA,"France","Hydrogen Europe"
48.8759316,2.3303682,"REUNIR","81 rue saint Lazare 75009 Paris",NA,NA,NA,"France","Hydrogen France"
48.8757693,2.2993555,"Eneralys","36 avenue Hoche 75008 Paris",NA,NA,NA,"France","Hydrogen France"
48.8757693,2.2993555,"H2V 59 LOON PLAGE","36 AVENUE HOCHE, 75008, Paris, Frankreich","36 AVENUE HOCHE","75008","PARIS","France","Amadeus"
48.8755937,2.2854967,"FEDA","10 Rue Pergolèse 75116 Paris",NA,NA,NA,"France","Hydrogen France"
48.8753041,2.3120856,"Syntec Ingénierie","148 Boulevard Haussmann 75008 Paris",NA,NA,NA,"France","Hydrogen France"
48.875031,2.3128989,"CB TRD","135 Boulevard Haussmann-75008 Paris",NA,NA,NA,"France","Hydrogen France"
48.8749232,2.3325339,"Neot Green Mobility","60 rue de la Chaussée d’Antin 75009 Paris",NA,NA,NA,"France","Hydrogen France"
48.873887,2.3359594,"Theoreme - A Howden Company","13 Rue La Fayette, 75009 Paris, France",NA,NA,NA,"France","Hydrogen France"
48.8733214,2.328085,"GP JOULE FRANCE","16 RUE AUBER, 75009, Paris, Frankreich","16 RUE AUBER","75009","PARIS","France","Amadeus"
48.8731663,2.325804,"pHYnix","25 rue des Mathurins 75008 Paris",NA,NA,NA,"France","Hydrogen France"
48.8731246,2.3429397,"NATUREO FINANCE","21 rue du Faubourg Montmartre 75009 PARIS",NA,NA,NA,"France","Hydrogen France"
48.8728426,2.3047888,"Sia Partners","21 rue de Berri 75008 Paris",NA,NA,NA,"France","Hydrogen France"
48.872416,2.340163,"FIVES","3 RUE DROUOT 750009 PARIS",NA,NA,NA,"France","Hydrogen France"
48.8723901,2.2982916,"SPECIALTY MINERALS FRANCE","121 AVENUE DES CHAMPS ELYSEES, 75008, Paris, Frankreich","121 AVENUE DES CHAMPS ELYSEES","75008","PARIS","France","Amadeus"
48.8720727,2.2949073,"NEBULA TECHNOLOGIES","37 RUE LA PEROUSE, 75116, Paris, Frankreich","37 RUE LA PEROUSE","75116","PARIS","France","Amadeus"
48.8720214,2.2905934,"Watson Farley & Williams","28 avenue Victor Hugo 75116 Paris",NA,NA,NA,"France","Hydrogen France"
48.8719642,2.3338448,"Clean Horizon Consulting","12 rue de la Chaussée d’Antin 75009 Paris",NA,NA,NA,"France","Hydrogen France"
48.8718672,2.3029523,"FNTP","3 rue de Berri 75008 Paris",NA,NA,NA,"France","Hydrogen France"
48.8716761,2.3289952,"PHYNIX France","6 SQUARE DE L OPERA LOUIS JOUVET, 75009, Paris, Frankreich","6 SQUARE DE L OPERA LOUIS JOUVET","75009","PARIS","France","Amadeus"
48.8716761,2.3289952,"TRANSITION HYDROGENE","6 SQUARE DE L OPERA LOUIS JOUVET, 75009, Paris, Frankreich","6 SQUARE DE L OPERA LOUIS JOUVET","75009","PARIS","France","Amadeus"
48.871307,2.335114,"KEIRYO","34 BOULEVARD DES ITALIENS, 75009, Paris, Frankreich","34 BOULEVARD DES ITALIENS","75009","PARIS","France","Amadeus"
48.8712949,2.3136468,"AXA","25 Avenue Matignon, Paris, Ile-de-France, 75008",NA,NA,NA,"France","Hydrogen France"
48.8707708,2.2316273,"Messer France","24 Quai Gallieni - CS 90040 92156 Suresnes",NA,NA,NA,"France","Hydrogen France"
48.8705336,2.34565,"Blunomy Advisory","17-21 Rue Saint-Fiacre, 75002 Paris, France",NA,NA,NA,"France","Hydrogen France"
48.87013,2.309885,"VERSO ENERGY","49 B AVENUE FRANKLIN DELANO ROOSEVELT, 75008, Paris, Frankreich","49 B AVENUE FRANKLIN DELANO ROOSEVELT","75008","PARIS","France","Amadeus"
48.8688256,2.30323,"HYLIKO","41 RUE FRANCOIS 1ER, 75008, Paris, Frankreich","41 RUE FRANCOIS 1ER","75008","PARIS","France","Amadeus"
48.8685805,2.58921926709402,"FRANCE ETUVES","65 RUE AUGUSTE MEUNIER, 77500, Seine-et-Marne, Frankreich","65 RUE AUGUSTE MEUNIER","77500","CHELLES","France","Amadeus"
48.8679717,2.3000457,"HYDWEY","37 AVENUE PIERRE 1ER DE SERBIE, 75008, Paris, Frankreich","37 AVENUE PIERRE 1ER DE SERBIE","75008","PARIS","France","Amadeus"
48.8679717,2.3000457,"IDEC ENERGY","37 AVENUE PIERRE 1ER DE SERBIE, 75008, Paris, Frankreich","37 AVENUE PIERRE 1ER DE SERBIE","75008","PARIS","France","Amadeus"
48.8679395,2.3211581,"La Plateforme Verte","9 rue Boissy d’Anglas 75008 Paris",NA,NA,NA,"France","Hydrogen France"
48.8675715,2.3224497,"Freget Glaser & Associés","7 rue Royale 75008 Paris",NA,NA,NA,"France","Hydrogen France"
48.8675371,2.3377392,"HY24","69 rue de Richelieu 75002 Paris",NA,NA,NA,"France","Hydrogen France"
48.8672098,2.2920402,"UNIVERSITE MOHAMMED 6 POLYTECHNIQUE","19 RUE DE L’AMIRAL HAMELIN 75016 PARIS",NA,NA,NA,"France","Hydrogen France"
48.8665539,2.3253878,"REV/RETROFUTURE","5 rue Cambon 75001 Paris",NA,NA,NA,"France","Hydrogen France"
48.8663333,2.3645359,"Conseil départemental de Loir-et-Cher","1 PLACE DE LA REPUBLIQUE",NA,NA,NA,"France","Hydrogen France"
48.8662226,2.3292035,"Hydrogen Advisors","231 rue Saint Honoré 75001 Paris",NA,NA,NA,"France","Hydrogen France"
48.8653429,2.3312506,"GH2","320 RUE SAINT HONORE, 75001, Paris, Frankreich","320 RUE SAINT HONORE","75001","PARIS","France","Amadeus"
48.8641465,2.3797039,"LAST MHYLE","84 AVENUE DE LA REPUBLIQUE, 75011, Paris, Frankreich","84 AVENUE DE LA REPUBLIQUE","75011","PARIS","France","Amadeus"
48.8622331,2.3047133,"OXYGENE ACETYLENE EXTREME ORIENT","75 QUAI D ORSAY, 75007, Paris, Frankreich","75 QUAI D ORSAY","75007","PARIS","France","Amadeus"
48.8618312,2.3045629,"AIR LIQUIDE HYDROGENE","6 RUE COGNACQ JAY, 75007, Paris, Frankreich","6 RUE COGNACQ JAY","75007","PARIS","France","Amadeus"
48.861757,2.3598,"Hinicio France","64-66 Rue des Archives 75003 Paris",NA,NA,NA,"France","Hydrogen France"
48.8614732,2.3094654,"HYCARGO","11 rue Surcouf, 75007 Paris, FRANCE",NA,NA,NA,"France","Hydrogen France"
48.861143,2.37073,"SOLADVENT","18 IMPASSE SAINT SEBASTIEN, 75011, Paris, Frankreich","18 IMPASSE SAINT SEBASTIEN","75011","PARIS","France","Amadeus"
48.8608525,2.310079,"FNCCR","20 Bd de la Tour-Maubourg, 75007 Paris, France",NA,NA,NA,"France","Hydrogen France"
48.8599936,2.3109038,"Schlumberger","42 rue Saint Dominique 75007 Paris",NA,NA,NA,"France","Hydrogen France"
48.8599936,2.3109038,"SLB","Rue St Dominique 42, Paris, 75007, France",NA,NA,NA,"France","Hydrogen Europe"
48.8597117,2.285756,"Laurent THERY","7 Avenue De Camoens",NA,NA,NA,"France","Hydrogen France"
48.856854,2.2652265,"ENRHEV","5 AVENUE INGRES, 75016, Paris, Frankreich","5 AVENUE INGRES","75016","PARIS","France","Amadeus"
48.855768,2.77158,"Coordef Ingénierie","Immeuble le Véga – 5 rue de la Galmy 77700 CHESSY",NA,NA,NA,"France","Hydrogen France"
48.8530191,2.3896788,"ATH","9 RUE ALEXANDRE DUMAS, 75011, Paris, Frankreich","9 RUE ALEXANDRE DUMAS","75011","PARIS","France","Amadeus"
48.8516411,2.3834581,"ERM FRANCE","13 RUE FAIDHERBE, Paris, 75011, France",NA,NA,NA,"France","Hydrogen Europe"
48.851307,2.146464,"Meije Development","23 Le Clos Baptiste 44 rue de Vinde 70170 La Celle St Cloud",NA,NA,NA,"France","Hydrogen France"
48.847975,2.656823,"SERTRONIC","Z.I. Nord, 3 rue des Ebénistes 77200 TORCY",NA,NA,NA,"France","Hydrogen France"
48.8476256,2.2640027,"Centre National de la Recherche Scientifique (CNRS)","CNRS Rue Michel-Ange 3, 75016, Ile-de-France France",NA,NA,NA,"France","Hydrogen Europe Research"
48.8462682,2.2609682,"Acaplast","24 rue Erlanger  75016 Paris",NA,NA,NA,"France","Hydrogen France"
48.8459896,2.3795371,"FillnDrive","130 rue Charenton 75012 PARIS",NA,NA,NA,"France","Hydrogen France"
48.8456409,2.3784003,"France Hydrogène","Avenue Daumesnil 50, Paris, 75012, France",NA,NA,NA,"France","Hydrogen Europe"
48.845632,2.339672,"H2MINES - Carnot M.I.N.E.S","60, bd Saint-Michel - 75006 Paris",NA,NA,NA,"France","Hydrogen France"
48.845632,2.339672,"MINES ParisTech/ARMINES PERSEE","Boulevard Saint-Michel 60, 75006 Paris, Ile-de-France France",NA,NA,NA,"France","Hydrogen Europe Research"
48.8454723,2.3252535,"FRANCE SUPPLY CHAIN","140 bis rue de Rennes 75006 PARIS",NA,NA,NA,"France","Hydrogen France"
48.8432649,2.2379122,"JFB Consulting","26 Boulevard Jean Jaurès 92100 Boulogne",NA,NA,NA,"France","Hydrogen France"
48.8428024,2.3746727,"H2 CRETEIL","173 175 TOUR DE BERCY, 173 RUE DE BERCY, 75012, Paris, Frankreich","173 175 TOUR DE BERCY, 173 RUE DE BERCY","75012","PARIS","France","Amadeus"
48.842793,2.371999,"RATP","54 quai de la Rapée 750012 Paris",NA,NA,NA,"France","Hydrogen France"
48.842038,2.250509,"EIFFAGE ENERGIE SYSTEMES","3-7 Pl. de l'Europe, 78140 Vélizy-Villacoublay, France",NA,NA,NA,"France","Hydrogen France"
48.8413419,2.3681815,"VERDIBUS TERRITOIRES","72 AVENUE PIERRE MENDES FRANCE, 75013, Paris, Frankreich","72 AVENUE PIERRE MENDES FRANCE","75013","PARIS","France","Amadeus"
48.84,2.26,"H2 Station",NA,NA,NA,"Paris","FR","www.H2stations.org"
48.84,2.38,"H2 Station",NA,NA,NA,"Paris","FR","www.H2stations.org"
48.84,2.67,"H2 Station",NA,NA,NA,"Bussy-Saint-Georges","FR","www.H2stations.org"
48.8399972,2.2737149,"Commissariat à l'énergie atomique et aux énergies alternatives (CEA)","Rue Leblanc 25, 75015, Paris, France",NA,NA,NA,"France","Hydrogen Europe Research"
48.839419,2.30157,"Arhyze","281 rue de Vaugirard 75015 Paris",NA,NA,NA,"France","Hydrogen France"
48.8374517,2.2405908,"MP DATA Technologies","39 rue de la saussière 92100 Boulogne Billancourt",NA,NA,NA,"France","Hydrogen France"
48.83716,2.370488,"Caisse des Dépôts","72, avenue Pierre Mendès France 75914 PARIS CEDEX 13",NA,NA,NA,"France","Hydrogen France"
48.8346536,2.289455,"BONACIEUX ENERGIES","24 RUE AUGUSTE CHABRIERES, 75015, Paris, Frankreich","24 RUE AUGUSTE CHABRIERES","75015","PARIS","France","Amadeus"
48.834484,2.256997,"ELLIPSE GROUP","305 Avenue le Jour se Lève, 92100 Boulogne",NA,NA,NA,"France","Hydrogen France"
48.8337779,2.3575561,"ENSAM","151 Bd de l'Hôpital, 75013 Paris",NA,NA,NA,"France","Hydrogen France"
48.833595,2.570921,"MESURE PROCESS","ZONE INDUSTRIELLE LES RICHARDETS, 33 RUE DU BALLON, 93160, Seine-Saint-Denis, Frankreich","ZONE INDUSTRIELLE LES RICHARDETS, 33 RUE DU BALLON","93160","NOISY LE GRAND","France","Amadeus"
48.8311187,2.3764903,"Accenture","118 avenue de France 75013 Paris",NA,NA,NA,"France","Hydrogen France"
48.8302676,2.2319745,"RENAULT VEHICLE INNOVATION","122 AVENUE DU GENERAL LECLERC, 92100, Hauts-de-Seine, Frankreich","122 AVENUE DU GENERAL LECLERC","92100","BOULOGNE BILLANCOURT","France","Amadeus"
48.83,2.26,"H2 Station",NA,NA,NA,"Issy-les-Moulineaux","FR","www.H2stations.org"
48.829435,2.295313,"LNE","1, rue Gaston Boissier 75724 PARIS Cedex 15 75724 Paris Cedex 15",NA,NA,NA,"France","Hydrogen France"
48.829264,2.522516,"EPI","15 Rue des Hauts Guibouts 94360 Bry-sur-Marne",NA,NA,NA,"France","Hydrogen France"
48.8286797,2.2404739,"Plug Power - HyPulsion","Place Paul Verlaine 1, Boulogne-Billancourt, 92100, France",NA,NA,NA,"France","Hydrogen Europe"
48.8279094,2.2353155,"MICHELIN","27, cours de l'île Seguin 92105 BOULOGNE BILLANCOURT CEDEX",NA,NA,NA,"France","Hydrogen France"
48.8278064,2.2641219,"Transdev","3 Allée de Grenelle 92130 ISSY-LES-MOULINEAUX",NA,NA,NA,"France","Hydrogen France"
48.820605,2.233734,"Vallourec","12 rue de la Verrerie 92190 Meudon",NA,NA,NA,"France","Hydrogen France"
48.817237,1.877881,"HYVIA","42 ROUTE DE BEYNES, 78640, Yvelines, Frankreich","42 ROUTE DE BEYNES","78640","VILLIERS ST FREDERIC","France","Amadeus"
48.8141073,2.3159705,"IMING","41 rue Périer  92120 Montrouge",NA,NA,NA,"France","Hydrogen France"
48.81,2.4,"H2 Station",NA,NA,NA,"Ivry sur Seine","FR","www.H2stations.org"
48.809794,2.1401384,"BDO IDF","7 rue du Parc de Clagny  78000 VERSAILLES",NA,NA,NA,"France","Hydrogen France"
48.8093427,2.3268665,"SGS","29 Avenue Aristide Briand 94110 Arcueil",NA,NA,NA,"France","Hydrogen France"
48.803063,2.29267,"Régulateurs Georgin","14-16 rue Pierre Sémard 92320 Chatillon",NA,NA,NA,"France","Hydrogen France"
48.8,2.29,"H2 Station",NA,NA,NA,"Châtillon","FR","www.H2stations.org"
48.79755,2.627126,"A GIACOMINI SA","PARC DE PONTILLAULT, RUE DE ROME, 77340, Seine-et-Marne, Frankreich","PARC DE PONTILLAULT, RUE DE ROME","77340","PONTAULT COMBAULT","France","Amadeus"
48.7946169,2.2755828,"VALLEE SUD HYDROGENE","28 RUE DE LA REDOUTE, 92260, Hauts-de-Seine, Frankreich","28 RUE DE LA REDOUTE","92260","FONTENAY AUX ROSES","France","Amadeus"
48.7929792,2.4897216,"I.M.O.2S","1 bis avenue François Adam 94100 Saint Maur des Fosses",NA,NA,NA,"France","Hydrogen France"
48.786461,2.052965,"SOCOTEC","5 Place des Frères Montgolfier 782870 Guyancourt",NA,NA,NA,"France","Hydrogen France"
48.786199,2.598484,"JACIR","11 rue Jean Moulin 77348 Pontault Combault",NA,NA,NA,"France","Hydrogen France"
48.777003,2.020222,"EMITECH","3 avenue des coudriers 78180 Montigny le Bretonneux",NA,NA,NA,"France","Hydrogen France"
48.767962,2.473463,"MANERGY","1 rue Séjourné 94000 Créteil",NA,NA,NA,"France","Hydrogen France"
48.767901,2.419886,"HYDROLOGIS","8 RUE DE LA PAIX, 94600, Val-de-Marne, Frankreich","8 RUE DE LA PAIX","94600","CHOISY LE ROI","France","Amadeus"
48.7635082,2.1234302,"BE green","55 Rue Tabuteau 78530 Buc",NA,NA,NA,"France","Hydrogen France"
48.761092,2.362603,"DEMATHIEU BARD BATIMENT ILE DE FRANCE","36 rue du Séminaire - BâtimentG5C - 94550 CHEVILLY LARUE",NA,NA,NA,"France","Hydrogen France"
48.76,2.12,"H2 Station",NA,NA,NA,"Buc","FR","www.H2stations.org"
48.76,2.13,"H2 Station",NA,NA,NA,"Les Loges-en-Josas","FR","www.H2stations.org"
48.76,2.29,"H2 Station",NA,NA,NA,"Chatenay-Malabry","FR","www.H2stations.org"
48.76,2.36,"H2 Station",NA,NA,NA,"Rungis","FR","www.H2stations.org"
48.756902,2.078818,"RENAULT SAS","1 avenue du Golf, Guyancourt, 78288, France",NA,NA,NA,"France","Hydrogen Europe"
48.753252,2.475716,"YE","22 RUE PAUL VALERY, 94450, Val-de-Marne, Frankreich","22 RUE PAUL VALERY","94450","LIMEIL BREVANNES","France","Amadeus"
48.7386297,2.37990120136825,"GEN-HY","PARC ROMEO ORLY AEROGARE, 94390 RUE DE LA SOIE, 94310, Val-de-Marne, Frankreich","PARC ROMEO ORLY AEROGARE, 94390 RUE DE LA SOIE","94310","ORLY","France","Amadeus"
48.73,2.37,"H2 Station",NA,NA,NA,"Paray-Vieille-Poste","FR","www.H2stations.org"
48.73,2.41,"H2 Station",NA,NA,NA,"Villeneuve-le-Roi","FR","www.H2stations.org"
48.73,2.55,"H2 Station",NA,NA,NA,"Marolles-en-Brie","FR","www.H2stations.org"
48.7291935,2.35882247912371,"Station de recharge Hydrogène HysetCo Orly","Orly Ouest, Av. de l'Aéroport, 94390 Paray-Vieille-Poste, France",NA,NA,NA,"France",NA
48.7261556,2.2628465,"ELOGEN","27 AVENUE CARNOT, 91300, Essonne, Frankreich","27 AVENUE CARNOT","91300","MASSY","France","Amadeus"
48.72,2.28,"H2 Station",NA,NA,NA,"Massy","FR","www.H2stations.org"
48.718333,2.566339,"SMT","101 avenue des Erables - 94440 Santery - France",NA,NA,NA,"France","Hydrogen France"
48.712829,2.1445,"MILEXIA FRANCE","IMMEUBLE LE MERCURY ESPACE TECHN, ROUTE DE L'ORME DES MERISIERS, 91190, Essonne, Frankreich","IMMEUBLE LE MERCURY ESPACE TECHN, ROUTE DE L'ORME DES MERISIERS","91190","ST AUBIN","France","Amadeus"
48.71273,2.084801,"GTT","Rte De Versailles 1, St Remy Les Chevreuse, 78470, France",NA,NA,NA,"France","Hydrogen Europe"
48.708154,2.230829,"PEAK SCIENTIFIC","BATIMENT B PARC GUTENBERG, 2 CHEMIN DE LA CARDON, 91120, Essonne, Frankreich","BATIMENT B PARC GUTENBERG, 2 CHEMIN DE LA CARDON","91120","PALAISEAU","France","Amadeus"
48.68974,2.2118204,"SWAGELOK PARIS","24 avenue de la Baltique, 91140 Villebon sur Yvette",NA,NA,NA,"France",NA
48.685061,2.217322,"CHROMOPTIC","ZAC DE VILLEJUST, AVENUE AVENUE DES 2 LACS, 91140, Essonne, Frankreich","ZAC DE VILLEJUST, AVENUE AVENUE DES 2 LACS","91140","VILLEJUST","France","Amadeus"
48.680339,2.199973,"Elogen Spain","8 avenue du Parana, 91940 Les Ulis",NA,NA,NA,"France","Hydrogen Spain"
48.626304,2.251621,"UTAC","Autodrome de Linas-Montlhéry, Avenue Georges Boillot 91310 Linas",NA,NA,NA,"France","Hydrogen France"
48.594856,2.383932,"Semardel","Rue Montaubert, 91810 Vert-le-Grand, France",NA,NA,NA,"France","Hydrogen France"
48.591951,2.248901,"Vallourec Tubes","12 Rue de la Verrerie, Meudon, 91290, France",NA,NA,NA,"France","Hydrogen Europe"
48.59,2.45,"H2 Station",NA,NA,NA,"Villabé","FR","www.H2stations.org"
48.570016,2.591257,"NOVA SWISS","31, rue Denis Papin 77240 CESSON",NA,NA,NA,"France","Hydrogen France"
48.223865,16.392535,"ALCON OPHTHALMIKA GMBH","AM TABOR 44 TOP 3.05.C, 1020, Wien, Österreich","AM TABOR 44 TOP 3.05.C","1020","WIEN","Austria","Amadeus"
48.2171874,16.3616177,"FLORESTAN KA HYDROGEN GMBH","TÜRKENSTRAßE 9, 1090, Wien, Österreich","TÜRKENSTRAßE 9","1090","WIEN","Austria","Amadeus"
48.2153966,16.3663693,"RENALFA HYDROGENE GMBH","SCHOTTENRING 16, 1010, Wien, Österreich","SCHOTTENRING 16","1010","WIEN","Austria","Amadeus"
48.2136251,16.4140143,"OMV","Trabrennstraße 6-8, Wien, 1020, Austria",NA,NA,NA,"Austria","Hydrogen Europe"
48.212427,16.415332,"Delphi Data Labs GmbH","Stella-Klein-Löw-Weg 8, 1020, Wien, Austria","Stella-Klein-Löw-Weg 8","1020","Wien","Austria","Hydrogen Austria"
48.211452,16.3668259,"VERBUND GREEN HYDROGEN SALES GMBH","AM HOF 6 A, 1010, Wien, Österreich","AM HOF 6 A","1010","WIEN","Austria","Amadeus"
48.21134,16.371692,"BIONIC-TEC AG","WIPPLINGERSTRAßE, 1010, Wien, Österreich","WIPPLINGERSTRAßE","1010","WIEN","Austria","Amadeus"
48.2112805,16.3778588,"Green Gas Service GmbH","Franz-Josefs-Kai 13, 1010, Wien, Austria","Franz-Josefs-Kai 13","1010","Wien","Austria","Hydrogen Austria"
48.208881,16.37003,"H2Motion GmbH","Graben 28/1/12,  A-1010 Vienna, Austria","Graben 28/1/12","1010","Vienna","Austria","Hydrogen Austria"
48.2019656,16.3745306,"Association of Gas - and District Heating Supply Companies (FGW)","Schubertring 14, Vienna, 1010, Austria",NA,NA,NA,"Austria","Hydrogen Europe"
48.200764,16.374197,"RAG Austria AG","Schwarzenbergplatz 16, 1015, Wien, Austria","Schwarzenbergplatz 16","1015","Wien","Austria","Hydrogen Austria"
48.2007538,16.3741849,"UNDERGROUND ENERGY STORAGE TECHNOLOGIES GMBH","SCHWARZENBERGPLATZ 16, 1010, Wien, Österreich","SCHWARZENBERGPLATZ 16","1010","WIEN","Austria","Amadeus"
48.2004858,16.4007318,"Robert Bosch Holding Austria GmbH","Göllnergasse 15-17, 1030, Wien, Austria","Göllnergasse 15-17","1030","Wien","Austria","Hydrogen Austria"
48.194636,16.409278,"ILF Consulting Engineers Austria Gmbh","Würtzlerstraße 3/7, 1030, Wien, Austria","Würtzlerstraße 3/7","1030","Wien","Austria","Hydrogen Austria"
48.19266285,16.4131085856432,"Wiener Stadtwerke","Thomas-Klestil-Platz 13, Wien, 1030, Austria",NA,NA,NA,"Austria","Hydrogen Europe"
48.1921104,16.413084284975,"Wien Energie GmbH","Thomas-Klestil-Platz 14, 1030, Wien, Austria","Thomas-Klestil-Platz 14","1030","Wien","Austria","Hydrogen Austria"
48.18930395,16.4123974941078,"ÖAMTC","Baumgasse 129, 1030, Wien, Austria","Baumgasse 129","1030","Wien","Austria","Hydrogen Austria"
48.18359,11.5921563,"P3 ENERGY SOLUTIONS GMBH","WILHELM-WAGENFELD-STR. 22, 80807, München, Landkreis, Deutschland","WILHELM-WAGENFELD-STR. 22","80807","MÜNCHEN","Germany","Amadeus"
48.1810434,11.585905,"UNIVERS GMBH","LEOPOLDSTR. 248, 80807, München, Landeshauptstadt, Deutschland","LEOPOLDSTR. 248","80807","MÜNCHEN","Germany","Amadeus"
48.1769098,11.5601299334586,"BMW","Petuelring 130, München, 80788, Germany",NA,NA,NA,"Germany","Hydrogen Europe"
48.1747642,11.5853358,"TURN ENERGY GMBH","LEOPOLDSTR. 173 E, 80804, München, Landeshauptstadt, Deutschland","LEOPOLDSTR. 173 E","80804","MÜNCHEN","Germany","Amadeus"
48.1540213,11.5836611161786,"Pacifico Energy Partners","Leopoldstrasse 20, 80802 Munich, Alemania",NA,NA,NA,"Germany","Hydrogen Spain"
48.15298195,11.6173594001886,"BAYWA POWER LIQUIDS GMBH","ARABELLASTR. 4, 81925, München, Landeshauptstadt, Deutschland","ARABELLASTR. 4","81925","MÜNCHEN","Germany","Amadeus"
48.15,11.52,"H2 Station",NA,NA,NA,"Munich","DE","www.H2stations.org"
48.1483349,11.5515328,"Thüga","Nymphenburger Str. 39, München, 80335, Germany",NA,NA,NA,"Germany","Hydrogen Europe"
48.1476499,11.5576329,"HYDROGEN RISE AG","NYMPHENBURGER STR. 3, 80335, München, Landeshauptstadt, Deutschland","NYMPHENBURGER STR. 3","80335","MÜNCHEN","Germany","Amadeus"
48.1465686,11.5511177,"Thüga Aktiengesellschaft","Nymphenburger Str. 39, 80335, München, Germany","Nymphenburger Str. 39","80335","München","Germany","Hydrogen Germany"
48.1443076,11.5503874,"QAIR INVEST RENEWABLE GMBH","ZIRKUS-KRONE-STR. 10, 80335, München, Landeshauptstadt, Deutschland","ZIRKUS-KRONE-STR. 10","80335","MÜNCHEN","Germany","Amadeus"
48.1436935,11.5490696,"KEYOU GmbH","Arnulfstraße 60, Munich, 80335, Germany",NA,NA,NA,"Germany","Hydrogen Europe"
48.1405381,11.57535,"JERA LOW CARBON ENERGY EUROPE GMBH","THEATINERSTR. 11, 80333, München, Landeshauptstadt, Deutschland","THEATINERSTR. 11","80333","MÜNCHEN","Germany","Amadeus"
48.1389543,11.5416971,"HYGENOX GMBH","SCHRENKSTR. 7, 80339, Bayern, Deutschland","SCHRENKSTR. 7","80339","MÜNCHEN","Germany","Amadeus"
48.1371079,11.5753822,"AUTOMATION W + R GmbH","Messerschmittstr. 7, 80992, München, Germany","Messerschmittstr. 7","80992","München","Germany","Hydrogen Germany"
48.135132,11.5454106,"International Platinum Group Metals Association","Schießstättstraße 30, 80339 München, Germany",NA,NA,NA,"Germany","Hydrogen Europe"
48.1328685,11.5210888,"TÜV SÜD","Westendstr 199, Munich, 80686, Germany",NA,NA,NA,"Germany","Hydrogen Europe"
48.1322664,11.5296222,"Fraunhofer","Hansastraße 27c, 80686 Munich, Germany",NA,NA,NA,"Germany","Hydrogen Europe Research"
48.12,11.66,"H2 Station",NA,NA,NA,"Munich","DE","www.H2stations.org"
48.1101139,11.5911032,"Energie Südbayern GmbH","Ungsteiner Str. 31, 81539, München, Germany","Ungsteiner Str. 31","81539","München","Germany","Hydrogen Germany"
48.1046585,11.6003208,"FUTURECAMP HOLDING GMBH","ASCHAUER STR. 30, 81549, München, Landeshauptstadt, Deutschland","ASCHAUER STR. 30","81549","MÜNCHEN","Germany","Amadeus"
48.1,11.63,"H2 Station",NA,NA,NA,"Munich","DE","www.H2stations.org"
48.0921376,11.6309573,"Freudenberg","Bayerwaldstrasse 3, Munich, 81737, Germany",NA,NA,NA,"Germany","Hydrogen Europe"
48.0918559,11.6486936,"Siemens Energy Global GmbH & Co. KG.","Otto-Hahn-Ring 6, Munich, 81739, Germany",NA,NA,NA,"Germany","Hydrogen Europe"
48.0755965,11.6551996,"CHORUS WIND SONTRA GMBH & CO. KG","PROFESSOR-MESSERSCHMITT-STR. 3, 85579, München, Landkreis, Deutschland","PROFESSOR-MESSERSCHMITT-STR. 3","85579","NEUBIBERG","Germany","Amadeus"
45.7708849,4.8118215,"MOBELEC","33 QUAI ARLOING, 69009, Rhône, Frankreich","33 QUAI ARLOING","69009","LYON","France","Amadeus"
45.7684157,4.8575694,"HydroGain","132 rue Bossuet  69006 Lyon",NA,NA,NA,"France","Hydrogen France"
45.767482,4.851515,"Aéroports de Lyon","BP 113, Lyon-Saint Exupéry Aéroport, 69125, France",NA,NA,NA,"France","Hydrogen Europe"
45.7649587,4.8460503,"FILL UP MEDIA","139 RUE VENDOME, 69006, Rhône, Frankreich","139 RUE VENDOME","69006","LYON","France","Amadeus"
45.762757,4.912945,"DAM Group","200 rue Léon Blum 69100 Villeurbane",NA,NA,NA,"France","Hydrogen France"
45.761732,4.8458117,"Aklea","29 rue de Bonnel 69003 Lyon",NA,NA,NA,"France","Hydrogen France"
45.7592594,4.8351816,"Elyse Energy","69 rue de la République 69002 Lyon",NA,NA,NA,"France","Hydrogen France"
45.759214,4.89673849476347,"Pyrocontrole","6 bis avenue du Docteur Schweitzer 69881 Meyzieu Cedex",NA,NA,NA,"France","Hydrogen France"
45.7591969,4.9163203,"ADECCO GROUP","2 Rue Henri Legay, 69100 Villeurbanne, France",NA,NA,NA,"France","Hydrogen France"
45.7590217,4.8426242,"GREENVOLT POWER","41, cours de la Liberté, 69003 Lyon",NA,NA,NA,"France","Hydrogen France"
45.7589629,4.8559931,"SOLVAY OPERATIONS FRANCE","9 RUE DES CUIRASSIERS, 69003, Rhône, Frankreich","9 RUE DES CUIRASSIERS","69003","LYON","France","Amadeus"
45.758093,4.8544,"METROPOLE DE LYON","20, rue du Lac CS 33569 69505 Lyon cedex 03",NA,NA,NA,"France","Hydrogen France"
45.755558,4.830655,"ENERGIE TERRITOIRE CONSEIL","16 rue Victor Hugo 69002 LY0N",NA,NA,NA,"France","Hydrogen France"
45.740575,4.820078,"Conseil Régional Auvergne-Rhône-Alpes","1 Espl. François Mitterrand, Lyon Cedex 2, CS 20033 - 69002, France",NA,NA,NA,"France","Hydrogen Europe"
45.7345794,4.8317101,"ODZ Consultants","63 Rue Andre Bollier 69007 Lyon",NA,NA,NA,"France","Hydrogen France"
45.7341481,4.8753049,"KEM ONE","IMMEUBLE LE QUADRILLE, 19 RUE JACQUELINE AURIOL, 69008, Rhône, Frankreich","IMMEUBLE LE QUADRILLE, 19 RUE JACQUELINE AURIOL","69008","LYON","France","Amadeus"
45.732974,4.8787199,"CARA","1, boulevard Edmond Michelet, Lyon, 69008, France",NA,NA,NA,"France","Hydrogen Europe"
45.73,4.84,"H2 Station",NA,NA,NA,"Lyon","FR","www.H2stations.org"
45.726567,4.823033,"Hympulsion","6 Rue Alexander Flemming, Lyon, 69007, France",NA,NA,NA,"France","Hydrogen Europe"
45.7265428,4.8231701,"HYMPULSION SAS","LODGE URBAN GARDEN, 6 RUE ALEXANDER FLEMING, 69007, Rhône, Frankreich","LODGE URBAN GARDEN, 6 RUE ALEXANDER FLEMING","69007","LYON","France","Amadeus"
45.726377,4.833304,"LINDE France","Linde France S.A. Les Jardins du Lou – bâtiment 5, 70 avenue Tony Garnier, CS 70021 69304 Lyon Cedex 07",NA,NA,NA,"France","Hydrogen France"
45.718372,4.879975,"SYMBIO FRANCE SAS","5 RUE SIMONE VEIL, VENISSIEUX, 69200, France",NA,NA,NA,"France","Hydrogen Europe"
45.71429425,4.92856716404373,"Alfa Laval","Immeuble Confluence, 117 All. des Parcs, 69800 Saint-Priest, France",NA,NA,NA,"France","Hydrogen France"
45.7109835,4.9172053,"Emerson France","8 Impasse La Madelon 69800 Saint Priest France",NA,NA,NA,"France","Hydrogen France"
45.71,4.87,"H2 Station",NA,NA,NA,"Venissieux","FR","www.H2stations.org"
45.708874,4.853374,"Saint Fons Air Liquide",NA,NA,NA,"Saint Fons","France","Hydrogen Production | European Hydrogen Observatory (europa.eu)"
45.7042176,4.8512714,"SYMBIO","10 RUE SPÉCIA, 69190, Rhône, Frankreich","10 RUE SPÉCIA","69190","ST FONS","France","Amadeus"
40.671853,-3.615768,"LECO INSTRUMENTOS SL","PLAZA DE LA ENCINA, 10 NUCLEO 3 PISO 1 A, 28760, Madrid, Spanien","PLAZA DE LA ENCINA, 10 NUCLEO 3 PISO 1 A","28760","TRES CANTOS","Spain","Amadeus"
40.6039019,-3.71845229366829,"AeH2","Ronda de Poniente,15, 1º Int. Izda. Tres Cantos, Madrid, 28760, Spain",NA,NA,NA,"Spain","Hydrogen Europe"
40.6039019,-3.71845229366829,"ARIEMA ENERGÍA Y MEDIOAMBIENTE S.L.","C/ Ronda de Poniente 15, 1º Planta Izquierda B  28760 Tres Cantos, Madrid",NA,NA,NA,"Spain","Hydrogen Spain"
40.601762,-3.71504594760973,"TÜV SÜD Spain","Ronda de Poniente, 4 Planta Baja y Primera, Parque Empresarial Euronova, C.P. 28760 Tres Cantos, Madrid",NA,NA,NA,"Spain","Hydrogen Spain"
40.60111,-3.709619,"GREEN ENERGYNVEST IBERICA SL.","CALLE DE LA IMPRENTA, 8 PTL 4, BJ 1, 28760, Madrid, Spanien","CALLE DE LA IMPRENTA, 8 PTL 4, BJ 1","28760","TRES CANTOS","Spain","Amadeus"
40.597969,-3.7173956,"SIEMENS ENERGY Spain","Ronda de Europa 5. 28760 Tres Cantos. Madrid",NA,NA,NA,"Spain","Hydrogen Spain"
40.5943684,-3.71027858817834,"Sener","Severo Ochoa 4, Tres Cantos, 28760 Madrid",NA,NA,NA,"Spain","Hydrogen Spain"
40.593092,-3.5455722,"Cetil Dispensing Technology, S.L.","Pelaya, 37, 28110 Algete (Madrid)",NA,NA,NA,"Spain","Hydrogen Spain"
40.558435,-3.618997,"TYPSA, Técnica y Proyectos S.A.","c/ Gomera 9, 28703, San Sebastián de los Reyes, Madrid, España",NA,NA,NA,"Spain","Hydrogen Spain"
40.553831,-3.6165,"Tecnatom","Avenida Montes de Oca 1, San Sebastián de los Reyes (Madrid)",NA,NA,NA,"Spain","Hydrogen Spain"
40.546778,-3.621852,"ROSETTA TECHNOLOGY SOLUTIONS S.L.","PASEO DE EUROPA 26, 1º OF.8 28703 SAN SEBASTIAN DE LOS REYES (MADRID)",NA,NA,NA,"Spain","Hydrogen Spain"
40.532794,-3.652175,"Emerson Spain","Francisco Gervás 1 ( Alcobendas) 28108",NA,NA,NA,"Spain","Hydrogen Spain"
40.5317418,-3.6451995,"Baltimore Aircoil Int nv","Carretera de Fuencarral, 44 CAMPUS TRIBECA Edificio 1 Bajo izquierda",NA,NA,NA,"Spain","Hydrogen Spain"
40.531492,-3.6385158,"TOYOTA ESPAÑA S.L.U.","Avenida de Bruselas, 22. 28108 Alcobendas (Madrid)",NA,NA,NA,"Spain","Hydrogen Spain"
40.53084235,-3.65455204927754,"BUREAU VERITAS","Calle Valportillo Primera, 22-24, Edificio Caoba, Pol. Ind. La Granja, 28108 Alcobendas, Madrid",NA,NA,NA,"Spain","Hydrogen Spain"
40.530834,-3.653401,"SUMINISTROS INDUSTRIALES DIVERSOS SA","C. Valportillo Segunda, 10, 28108 Alcobendas, Madrid, Spain",NA,NA,NA,"Spain","Hydrogen Spain"
40.53082555,-3.63325687854369,"HIDROVERSOL BADAJOZ SL.","AVENIDA DE BRUSELAS, 7 PISO 3 PTA IZ, 28108, Madrid, Spanien","AVENIDA DE BRUSELAS, 7 PISO 3 PTA IZ","28108","ALCOBENDAS","Spain","Amadeus"
40.530649,-3.65027910738059,"Alfa Laval Iberia SA","C. de Francisco Gervás, 4, 2ª planta, 28108 Alcobendas, Madrid, Spain",NA,NA,NA,"Spain","Hydrogen Spain"
40.530466,-3.49231,"Wolftank Iberia","C. Andalucía, 14, 28864 Ajalvir, Madrid",NA,NA,NA,"Spain","Hydrogen Spain"
40.529857,-3.652946,"DEKRA Spain","C. Calabozos, 12, 28108 Alcobendas, Madrid, Spain",NA,NA,NA,"Spain","Hydrogen Spain"
40.51632895,-3.65920519968079,"ACCIONAPLUG S.L.","Avenida de Europa 10, PE La Moraleja, Alcobendas, Madrid, 28108, Spain",NA,NA,NA,"Spain","Hydrogen Europe"
40.503282,-3.547658,"GAS ECO SUMINISTROS, S.L","c/ Igarsa nº 2 28860 Paracuellos de Jarama (Madrid)",NA,NA,NA,"Spain","Hydrogen Spain"
40.501145,-3.47993650178178,"Instituto nacional de Técnica Aeroespacial (INTA)","Carretera de Ajalvir, 28814 Ajalvir, Community of Madrid, Spain",NA,NA,NA,"Spain","Hydrogen Europe Research"
